,School_code,School_name,latest_year_enrolment_FTE,Level_of_schooling,AECG_region,ASGS_remoteness,Latitude,Longitude,Ratio,teacher_demand
0,1001,Abbotsford Public School,531.0,Primary School,Metropolitan East,Major Cities of Australia,-33.852728,151.131206,16.02857142857143,34.0
1,1002,Aberdeen Public School,191.0,Primary School,Hunter,Inner Regional Australia,-32.166098,150.888095,16.02857142857143,12.0
2,1003,Abermain Public School,270.0,Primary School,Hunter,Major Cities of Australia,-32.80892,151.426499,16.02857142857143,17.0
3,1007,Adaminaby Public School,19.0,Primary School,Lower South Coast,Outer Regional Australia,-35.993292,148.776721,16.02857142857143,2.0
4,1008,Adamstown Public School,317.0,Primary School,Hunter,Major Cities of Australia,-32.932213,151.730971,16.02857142857143,20.0
5,1009,Adelong Public School,61.0,Primary School,Riverina 1,Inner Regional Australia,-35.312333,148.062802,16.02857142857143,4.0
6,1015,Albion Park Public School,469.0,Primary School,Upper South Coast,Major Cities of Australia,-34.570257,150.77262,16.02857142857143,30.0
7,1016,Timbumburi Public School,154.0,Primary School,North Western 2,Outer Regional Australia,-31.203781,150.915629,16.02857142857143,10.0
8,1017,Albury Public School,633.0,Primary School,Riverina 1,Inner Regional Australia,-36.082454,146.919253,16.02857142857143,40.0
9,1019,Albury West Public School,156.0,Primary School,Riverina 1,Inner Regional Australia,-36.07783,146.895548,16.02857142857143,10.0
10,1028,Alma Public School,266.0,Primary School,Western 3,Outer Regional Australia,-31.982217,141.462443,16.02857142857143,17.0
11,1030,Alstonville Public School,375.0,Primary School,Upper North Coast,Inner Regional Australia,-28.838471,153.438172,16.02857142857143,24.0
12,1040,Anna Bay Public School,368.0,Primary School,Hunter,Inner Regional Australia,-32.77637,152.089912,16.02857142857143,23.0
13,1041,Annandale Public School,410.0,Primary School,Metropolitan East,Major Cities of Australia,-33.885782,151.169599,16.02857142857143,26.0
14,1042,Annandale North Public School,397.0,Primary School,Metropolitan East,Major Cities of Australia,-33.877905,151.171835,16.02857142857143,25.0
15,1045,Appin Public School,340.0,Primary School,Dharawal,Inner Regional Australia,-34.198417,150.78766,16.02857142857143,22.0
16,1048,Arcadia Public School,86.0,Primary School,Metropolitan North,Inner Regional Australia,-33.623487,151.051031,16.02857142857143,6.0
17,1057,Armidale City Public School,453.0,Primary School,North Western 2,Inner Regional Australia,-30.519501,151.664056,16.02857142857143,29.0
18,1058,Drummond Memorial Public School,174.0,Primary School,North Western 2,Inner Regional Australia,-30.511469,151.650715,16.02857142857143,11.0
19,1061,Artarmon Public School,1278.0,Primary School,Metropolitan North,Major Cities of Australia,-33.811249,151.186001,16.02857142857143,80.0
20,1064,Ashbury Public School,384.0,Primary School,Metropolitan East,Major Cities of Australia,-33.898833,151.11944,16.02857142857143,24.0
21,1065,Ashfield Public School,471.0,Primary School,Metropolitan East,Major Cities of Australia,-33.889723,151.12821,16.02857142857143,30.0
22,1070,Asquith Public School,455.0,Primary School,Metropolitan North,Major Cities of Australia,-33.685729,151.112177,16.02857142857143,29.0
23,1071,Attunga Public School,28.0,Primary School,North Western 2,Outer Regional Australia,-30.930445,150.846575,16.02857142857143,2.0
24,1073,Auburn North Public School,662.0,Primary School,Metropolitan South West,Major Cities of Australia,-33.841669,151.038618,16.02857142857143,42.0
25,1075,Auburn West Public School,593.0,Primary School,Metropolitan South West,Major Cities of Australia,-33.860931,151.019764,16.02857142857143,37.0
26,1076,Austinmer Public School,296.0,Primary School,Upper South Coast,Major Cities of Australia,-34.305398,150.934991,16.02857142857143,19.0
27,1077,Austral Public School,294.0,Primary School,Metropolitan South West,Major Cities of Australia,-33.934487,150.812638,16.02857142857143,19.0
28,1081,Avoca Public School,3.0,Primary School,Upper South Coast,Inner Regional Australia,-34.612697,150.479766,16.02857142857143,1.0
29,1082,Avoca Beach Public School,475.0,Primary School,Central Coast,Major Cities of Australia,-33.471154,151.430745,16.02857142857143,30.0
30,1084,Awaba Public School,40.0,Primary School,Hunter,Major Cities of Australia,-33.010554,151.538068,16.02857142857143,3.0
31,1085,Colo Vale Public School,183.0,Primary School,Upper South Coast,Inner Regional Australia,-34.401281,150.476178,16.02857142857143,12.0
32,1098,Bald Blair Public School,33.0,Primary School,North Western 2,Outer Regional Australia,-30.229893,151.785056,16.02857142857143,2.0
33,1104,Seaforth Public School,510.0,Primary School,Metropolitan North,Major Cities of Australia,-33.793262,151.251235,16.02857142857143,32.0
34,1106,Balgownie Public School,333.0,Primary School,Upper South Coast,Major Cities of Australia,-34.386984,150.872076,16.02857142857143,21.0
35,1111,Ballimore Public School,14.0,Primary School,Western 1,Outer Regional Australia,-32.193596,148.899631,16.02857142857143,1.0
36,1112,Ballina Public School,273.0,Primary School,Upper North Coast,Inner Regional Australia,-28.869724,153.563707,16.02857142857143,17.0
37,1118,Bangalow Public School,242.0,Primary School,Upper North Coast,Inner Regional Australia,-28.68554,153.525743,16.02857142857143,15.0
38,1121,Banksmeadow Public School,301.0,Primary School,Metropolitan East,Major Cities of Australia,-33.953739,151.20661,16.02857142857143,19.0
39,1123,Greenacre Public School,840.0,Primary School,Metropolitan South West,Major Cities of Australia,-33.911161,151.057581,16.02857142857143,53.0
40,1124,Bankstown North Public School,344.0,Primary School,Metropolitan South West,Major Cities of Australia,-33.904888,151.038043,16.02857142857143,22.0
41,1129,Banora Point Public School,574.0,Primary School,Upper North Coast,Major Cities of Australia,-28.222422,153.543702,16.02857142857143,36.0
42,1134,Bargo Public School,279.0,Primary School,Dharawal,Inner Regional Australia,-34.292889,150.58274,16.02857142857143,18.0
43,1135,Barham Public School,130.0,Primary School,Riverina 2,Outer Regional Australia,-35.626915,144.127977,16.02857142857143,9.0
44,1136,Barkers Vale Public School,34.0,Primary School,Upper North Coast,Inner Regional Australia,-28.54902,153.14927,16.02857142857143,3.0
45,1137,Barmedman Public School,7.0,Primary School,Riverina 1,Outer Regional Australia,-34.148277,147.385078,16.02857142857143,1.0
46,1138,Barnsley Public School,300.0,Primary School,Hunter,Major Cities of Australia,-32.933094,151.594552,16.02857142857143,19.0
47,1139,Barooga Public School,105.0,Primary School,Riverina 2,Inner Regional Australia,-35.912963,145.695985,16.02857142857143,7.0
48,1143,Barrington Public School,43.0,Primary School,Manning,Outer Regional Australia,-31.971159,151.911058,16.02857142857143,3.0
49,1146,Baryulgil Public School,11.0,Primary School,Upper North Coast,Outer Regional Australia,-29.2235,152.605615,16.02857142857143,1.0
50,1148,Bass Hill Public School,384.0,Primary School,Metropolitan South West,Major Cities of Australia,-33.905902,151.005779,16.02857142857143,24.0
51,1149,Batemans Bay Public School,554.0,Primary School,Lower South Coast,Inner Regional Australia,-35.700051,150.188373,16.02857142857143,35.0
52,1150,Bathurst Public School,564.0,Primary School,Western 1,Inner Regional Australia,-33.420942,149.570615,16.02857142857143,36.0
53,1160,Beckom Public School,8.0,Primary School,Riverina 1,Outer Regional Australia,-34.327211,146.962928,16.02857142857143,1.0
54,1164,Bedgerabong Public School,41.0,Primary School,Western 1,Outer Regional Australia,-33.361353,147.679318,16.02857142857143,3.0
55,1165,Beechwood Public School,166.0,Primary School,Lower North Coast,Inner Regional Australia,-31.435535,152.68094,16.02857142857143,11.0
56,1166,Beecroft Public School,896.0,Primary School,Metropolitan North,Major Cities of Australia,-33.752085,151.06462,16.02857142857143,56.0
57,1167,Beelbangera Public School,178.0,Primary School,Riverina 1,Outer Regional Australia,-34.252836,146.101067,16.02857142857143,12.0
58,1168,Bega Valley Public School,298.0,Primary School,Lower South Coast,Outer Regional Australia,-36.670545,149.839095,16.02857142857143,19.0
59,1175,Bellata Public School,18.0,Primary School,North Western 1,Outer Regional Australia,-29.918659,149.796216,16.02857142857143,2.0
60,1177,Bellbird Public School,244.0,Primary School,Hunter,Inner Regional Australia,-32.859421,151.316705,16.02857142857143,16.0
61,1178,Bellbrook Public School,28.0,Primary School,Lower North Coast,Outer Regional Australia,-30.819094,152.508698,16.02857142857143,2.0
62,1179,Bellevue Hill Public School,524.0,Primary School,Metropolitan East,Major Cities of Australia,-33.886986,151.259785,16.02857142857143,33.0
63,1181,Bellingen Public School,378.0,Primary School,Lower North Coast,Outer Regional Australia,-30.45349,152.891887,16.02857142857143,24.0
64,1182,Belltrees Public School,11.0,Primary School,Hunter,Outer Regional Australia,-31.988753,151.129487,16.02857142857143,1.0
65,1183,Belmont Public School,328.0,Primary School,Hunter,Major Cities of Australia,-33.030134,151.662203,16.02857142857143,21.0
66,1185,Belmore North Public School,277.0,Primary School,Metropolitan South West,Major Cities of Australia,-33.909885,151.084885,16.02857142857143,18.0
67,1186,Belmore South Public School,286.0,Primary School,Metropolitan South West,Major Cities of Australia,-33.925735,151.091985,16.02857142857143,18.0
68,1189,Bemboka Public School,42.0,Primary School,Lower South Coast,Outer Regional Australia,-36.631309,149.571075,16.02857142857143,3.0
69,1191,Bendemeer Public School,17.0,Primary School,North Western 2,Outer Regional Australia,-30.886984,151.150991,16.02857142857143,1.0
70,1196,Ben Lomond Public School,11.0,Primary School,North Western 2,Outer Regional Australia,-30.017024,151.661287,16.02857142857143,1.0
71,1198,Ben Venue Public School,567.0,Primary School,North Western 2,Inner Regional Australia,-30.502884,151.67462,16.02857142857143,36.0
72,1199,Berala Public School,774.0,Primary School,Metropolitan South West,Major Cities of Australia,-33.869714,151.028244,16.02857142857143,49.0
73,1201,Beresfield Public School,302.0,Primary School,Hunter,Major Cities of Australia,-32.803964,151.654863,16.02857142857143,19.0
74,1202,Berkeley Public School,324.0,Primary School,Upper South Coast,Major Cities of Australia,-34.480214,150.856493,16.02857142857143,21.0
75,1203,Berkeley Vale Public School,678.0,Primary School,Central Coast,Major Cities of Australia,-33.350515,151.435888,16.02857142857143,43.0
76,1204,Bermagui Public School,170.0,Primary School,Lower South Coast,Outer Regional Australia,-36.420776,150.063625,16.02857142857143,11.0
77,1205,Berowra Public School,385.0,Primary School,Metropolitan North,Major Cities of Australia,-33.618522,151.148996,16.02857142857143,24.0
78,1206,Berridale Public School,54.0,Primary School,Lower South Coast,Outer Regional Australia,-36.371444,148.827209,16.02857142857143,4.0
79,1207,Berrigan Public School,79.0,Primary School,Riverina 2,Outer Regional Australia,-35.659667,145.815664,16.02857142857143,5.0
80,1209,Berrima Public School,160.0,Primary School,Upper South Coast,Inner Regional Australia,-34.485882,150.340775,16.02857142857143,10.0
81,1211,Berry Public School,314.0,Primary School,Upper South Coast,Inner Regional Australia,-34.778317,150.689706,16.02857142857143,20.0
82,1215,Beverly Hills Public School,466.0,Primary School,Metropolitan East,Major Cities of Australia,-33.953449,151.085209,16.02857142857143,29.0
83,1217,Bexhill Public School,115.0,Primary School,Upper North Coast,Inner Regional Australia,-28.766026,153.345835,16.02857142857143,8.0
84,1223,Bigga Public School,8.0,Primary School,Western 1,Outer Regional Australia,-34.0847,149.144602,16.02857142857143,1.0
85,1224,Bilambil Public School,350.0,Primary School,Upper North Coast,Major Cities of Australia,-28.223742,153.468431,16.02857142857143,22.0
86,1227,Ocean Shores Public School,317.0,Primary School,Upper North Coast,Inner Regional Australia,-28.491203,153.540337,16.02857142857143,20.0
87,1228,Bilpin Public School,58.0,Primary School,Metropolitan West,Inner Regional Australia,-33.497331,150.516765,16.02857142857143,4.0
88,1230,Binalong Public School,34.0,Primary School,Riverina 1,Inner Regional Australia,-34.670108,148.625718,16.02857142857143,3.0
89,1231,Binda Public School,10.0,Primary School,Western 1,Outer Regional Australia,-34.331463,149.368114,16.02857142857143,1.0
90,1238,Binya Public School,18.0,Primary School,Riverina 1,Outer Regional Australia,-34.228678,146.353034,16.02857142857143,2.0
91,1240,Birchgrove Public School,389.0,Primary School,Metropolitan East,Major Cities of Australia,-33.853009,151.177045,16.02857142857143,25.0
92,1246,Blackheath Public School,342.0,Primary School,Metropolitan West,Inner Regional Australia,-33.639284,150.285831,16.02857142857143,22.0
93,1247,Black Hill Public School,82.0,Primary School,Hunter,Major Cities of Australia,-32.838523,151.617131,16.02857142857143,6.0
94,1249,Black Mountain Public School,21.0,Primary School,North Western 2,Outer Regional Australia,-30.308489,151.657688,16.02857142857143,2.0
95,1252,Blackville Public School,6.0,Primary School,North Western 1,Outer Regional Australia,-31.64044,150.237489,16.02857142857143,1.0
96,1254,Blakebrook Public School,64.0,Primary School,Upper North Coast,Inner Regional Australia,-28.763426,153.229992,16.02857142857143,4.0
97,1255,Blakehurst Public School,248.0,Primary School,Metropolitan East,Major Cities of Australia,-33.98298,151.115779,16.02857142857143,16.0
98,1256,Blandford Public School,21.0,Primary School,Hunter,Outer Regional Australia,-31.778585,150.892725,16.02857142857143,2.0
99,1257,Blaxcell Street Public School,907.0,Primary School,Metropolitan South West,Major Cities of Australia,-33.858068,151.006125,16.02857142857143,57.0
100,1258,Blaxland Public School,119.0,Primary School,Metropolitan West,Major Cities of Australia,-33.737103,150.603489,16.02857142857143,8.0
101,1260,Blayney Public School,317.0,Primary School,Western 1,Inner Regional Australia,-33.528987,149.251583,16.02857142857143,20.0
102,1261,Blighty Public School,37.0,Primary School,Riverina 2,Outer Regional Australia,-35.580094,145.349272,16.02857142857143,3.0
103,1266,Boambee Public School,440.0,Primary School,Lower North Coast,Inner Regional Australia,-30.334055,153.077009,16.02857142857143,28.0
104,1269,Bobin Public School,14.0,Primary School,Manning,Outer Regional Australia,-31.712682,152.28388,16.02857142857143,1.0
105,1271,Bobs Farm Public School,31.0,Primary School,Hunter,Inner Regional Australia,-32.766796,152.010937,16.02857142857143,2.0
106,1272,Bodalla Public School,65.0,Primary School,Lower South Coast,Outer Regional Australia,-36.09938,150.053879,16.02857142857143,4.0
107,1274,Bogan Gate Public School,7.0,Primary School,Western 1,Outer Regional Australia,-33.104968,147.797859,16.02857142857143,1.0
108,1276,Boggabri Public School,69.0,Primary School,North Western 1,Outer Regional Australia,-30.705682,150.043053,16.02857142857143,5.0
109,1286,Bolwarra Public School,432.0,Primary School,Hunter,Major Cities of Australia,-32.706994,151.573008,16.02857142857143,27.0
110,1287,Bomaderry Public School,354.0,Primary School,Upper South Coast,Inner Regional Australia,-34.847379,150.608269,16.02857142857143,22.0
111,1288,Bombala Public School,125.0,Primary School,Lower South Coast,Outer Regional Australia,-36.918986,149.233792,16.02857142857143,8.0
112,1292,Bondi Beach Public School,585.0,Primary School,Metropolitan East,Major Cities of Australia,-33.8883,151.276821,16.02857142857143,37.0
113,1293,Bongongo Public School,15.0,Primary School,Riverina 1,Outer Regional Australia,-35.08463,148.399517,16.02857142857143,1.0
114,1296,Bonshaw Public School,16.0,Primary School,North Western 2,Outer Regional Australia,-29.046366,151.278092,16.02857142857143,1.0
115,1297,Bonville Public School,117.0,Primary School,Lower North Coast,Inner Regional Australia,-30.379782,153.032316,16.02857142857143,8.0
116,1302,Boolaroo Public School,68.0,Primary School,Hunter,Major Cities of Australia,-32.951196,151.622765,16.02857142857143,5.0
117,1303,Booligal Public School,7.0,Primary School,Riverina 2,Remote Australia,-33.86704,144.886395,16.02857142857143,1.0
118,1307,Boomi Public School,16.0,Primary School,North Western 1,Remote Australia,-28.724129,149.577268,16.02857142857143,1.0
119,1311,Booral Public School,108.0,Primary School,Manning,Inner Regional Australia,-32.471428,151.960736,16.02857142857143,7.0
120,1318,Boree Creek Public School,33.0,Primary School,Riverina 1,Outer Regional Australia,-35.105937,146.606338,16.02857142857143,2.0
121,1320,Boronia Park Public School,546.0,Primary School,Metropolitan North,Major Cities of Australia,-33.821414,151.135558,16.02857142857143,34.0
122,1321,Bossley Park Public School,410.0,Primary School,Metropolitan South West,Major Cities of Australia,-33.858524,150.883076,16.02857142857143,26.0
123,1323,Botany Public School,286.0,Primary School,Metropolitan East,Major Cities of Australia,-33.94316,151.194687,16.02857142857143,18.0
124,1326,Bourke Public School,175.0,Primary School,Western 2,Remote Australia,-30.09351,145.94968,16.02857142857143,11.0
125,1334,Bowning Public School,30.0,Primary School,Upper South Coast,Inner Regional Australia,-34.769376,148.81153,16.02857142857143,2.0
126,1335,Bowral Public School,560.0,Primary School,Upper South Coast,Inner Regional Australia,-34.481178,150.419191,16.02857142857143,35.0
127,1341,Branxton Public School,375.0,Primary School,Hunter,Inner Regional Australia,-32.659391,151.350682,16.02857142857143,24.0
128,1345,Breadalbane Public School,6.0,Primary School,Upper South Coast,Inner Regional Australia,-34.790546,149.487576,16.02857142857143,1.0
129,1346,Colo Heights Public School,33.0,Primary School,Metropolitan West,Outer Regional Australia,-33.372972,150.739776,16.02857142857143,2.0
130,1347,Bredbo Public School,11.0,Primary School,Lower South Coast,Inner Regional Australia,-35.95399,149.14797,16.02857142857143,1.0
131,1354,Bribbaree Public School,8.0,Primary School,Western 1,Outer Regional Australia,-34.12042,147.874699,16.02857142857143,1.0
132,1358,Brighton-Le-Sands Public School,607.0,Primary School,Metropolitan East,Major Cities of Australia,-33.962357,151.148929,16.02857142857143,38.0
133,1360,Bringelly Public School,108.0,Primary School,Metropolitan South West,Major Cities of Australia,-33.93791,150.730266,16.02857142857143,7.0
134,1361,Broadwater Public School,54.0,Primary School,Upper North Coast,Inner Regional Australia,-29.002773,153.437279,16.02857142857143,4.0
135,1363,Brocklesby Public School,12.0,Primary School,Riverina 1,Inner Regional Australia,-35.823911,146.677989,16.02857142857143,1.0
136,1367,Broke Public School,59.0,Primary School,Hunter,Inner Regional Australia,-32.744976,151.104334,16.02857142857143,4.0
137,1369,Broken Hill Public School,158.0,Primary School,Western 3,Outer Regional Australia,-31.956108,141.456502,16.02857142857143,10.0
138,1371,Broken Hill North Public School,246.0,Primary School,Western 3,Outer Regional Australia,-31.944457,141.471518,16.02857142857143,16.0
139,1372,Bronte Public School,374.0,Primary School,Metropolitan East,Major Cities of Australia,-33.900605,151.262011,16.02857142857143,24.0
140,1377,Brooklyn Public School,67.0,Primary School,Metropolitan North,Inner Regional Australia,-33.548414,151.214992,16.02857142857143,5.0
141,1379,Brookvale Public School,355.0,Primary School,Metropolitan North,Major Cities of Australia,-33.761678,151.270787,16.02857142857143,23.0
142,1387,Brungle Public School,13.0,Primary School,Riverina 1,Inner Regional Australia,-35.156755,148.233572,16.02857142857143,1.0
143,1389,Brunswick Heads Public School,230.0,Primary School,Upper North Coast,Inner Regional Australia,-28.541343,153.550848,16.02857142857143,15.0
144,1411,Bulli Public School,255.0,Primary School,Upper South Coast,Major Cities of Australia,-34.326951,150.912703,16.02857142857143,16.0
145,1414,Bundanoon Public School,160.0,Primary School,Upper South Coast,Inner Regional Australia,-34.657878,150.300442,16.02857142857143,10.0
146,1421,Bungendore Public School,510.0,Primary School,Upper South Coast,Inner Regional Australia,-35.255619,149.444628,16.02857142857143,32.0
147,1424,Bungwahl Public School,38.0,Primary School,Manning,Inner Regional Australia,-32.389144,152.448558,16.02857142857143,3.0
148,1425,Bunnaloo Public School,37.0,Primary School,Riverina 2,Outer Regional Australia,-35.786399,144.597923,16.02857142857143,3.0
149,1432,Burke Ward Public School,228.0,Primary School,Western 3,Outer Regional Australia,-31.960361,141.441054,16.02857142857143,15.0
150,1433,Burnside Public School,257.0,Primary School,Metropolitan West,Major Cities of Australia,-33.79258,151.018316,16.02857142857143,16.0
151,1445,Burrawang Public School,34.0,Primary School,Upper South Coast,Inner Regional Australia,-34.592222,150.51725,16.02857142857143,3.0
152,1447,Burren Junction Public School,36.0,Primary School,North Western 1,Remote Australia,-30.102686,148.964703,16.02857142857143,3.0
153,1449,Burringbar Public School,57.0,Primary School,Upper North Coast,Inner Regional Australia,-28.436645,153.466738,16.02857142857143,4.0
154,1453,Burrumbuttock Public School,30.0,Primary School,Riverina 1,Inner Regional Australia,-35.837489,146.800049,16.02857142857143,2.0
155,1455,Burwood Public School,570.0,Primary School,Metropolitan South West,Major Cities of Australia,-33.8768,151.098987,16.02857142857143,36.0
156,1460,Buxton Public School,163.0,Primary School,Dharawal,Inner Regional Australia,-34.246971,150.544826,16.02857142857143,11.0
157,1470,Byron Bay Public School,664.0,Primary School,Upper North Coast,Inner Regional Australia,-28.647416,153.614826,16.02857142857143,42.0
158,1471,Cabbage Tree Island Public School,38.0,Primary School,Upper North Coast,Inner Regional Australia,-28.98367,153.457788,16.02857142857143,3.0
159,1472,Cabramatta Public School,657.0,Primary School,Metropolitan South West,Major Cities of Australia,-33.895823,150.942629,16.02857142857143,41.0
160,1481,Cambewarra Public School,248.0,Primary School,Upper South Coast,Inner Regional Australia,-34.821537,150.556043,16.02857142857143,16.0
161,1482,Camden Public School,318.0,Primary School,Dharawal,Major Cities of Australia,-34.051998,150.693236,16.02857142857143,20.0
162,1483,Camdenville Public School,365.0,Primary School,Metropolitan East,Major Cities of Australia,-33.906146,151.175741,16.02857142857143,23.0
163,1485,Cammeray Public School,860.0,Primary School,Metropolitan North,Major Cities of Australia,-33.820422,151.211542,16.02857142857143,54.0
164,1486,Campbelltown Public School,318.0,Primary School,Dharawal,Major Cities of Australia,-34.070109,150.815634,16.02857142857143,20.0
165,1488,Campsie Public School,659.0,Primary School,Metropolitan South West,Major Cities of Australia,-33.911863,151.104846,16.02857142857143,42.0
166,1490,Candelo Public School,82.0,Primary School,Lower South Coast,Outer Regional Australia,-36.768392,149.695674,16.02857142857143,6.0
167,1492,Caniaba Public School,41.0,Primary School,Upper North Coast,Inner Regional Australia,-28.830799,153.231317,16.02857142857143,3.0
168,1494,Canley Vale Public School,860.0,Primary School,Metropolitan South West,Major Cities of Australia,-33.88676,150.937632,16.02857142857143,54.0
169,1495,Canobolas Public School,133.0,Primary School,Western 1,Inner Regional Australia,-33.305942,149.04621,16.02857142857143,9.0
170,1497,Canterbury Public School,387.0,Primary School,Metropolitan East,Major Cities of Australia,-33.908761,151.122306,16.02857142857143,25.0
171,1498,Brisbania Public School,437.0,Primary School,Central Coast,Major Cities of Australia,-33.478822,151.357294,16.02857142857143,28.0
172,1499,Uranquinty Public School,35.0,Primary School,Riverina 1,Inner Regional Australia,-35.188793,147.249486,16.02857142857143,3.0
173,1501,Capertee Public School,4.0,Primary School,Western 1,Inner Regional Australia,-33.147074,149.985922,16.02857142857143,1.0
174,1502,Captains Flat Public School,50.0,Primary School,Upper South Coast,Inner Regional Australia,-35.587192,149.450147,16.02857142857143,4.0
175,1503,Caragabal Public School,35.0,Primary School,Western 1,Outer Regional Australia,-33.84532,147.744452,16.02857142857143,3.0
176,1504,Carcoar Public School,21.0,Primary School,Western 1,Inner Regional Australia,-33.612326,149.142432,16.02857142857143,2.0
177,1505,Cardiff Public School,263.0,Primary School,Hunter,Major Cities of Australia,-32.945779,151.657754,16.02857142857143,17.0
178,1506,Cargo Public School,29.0,Primary School,Western 1,Outer Regional Australia,-33.427612,148.807697,16.02857142857143,2.0
179,1507,Carinda Public School,10.0,Primary School,Western 2,Remote Australia,-30.461882,147.687555,16.02857142857143,1.0
180,1508,Caringbah Public School,316.0,Primary School,Metropolitan East,Major Cities of Australia,-34.053433,151.122988,16.02857142857143,20.0
181,1512,Carlton Public School,826.0,Primary School,Metropolitan East,Major Cities of Australia,-33.963496,151.12246,16.02857142857143,52.0
182,1513,Carlton South Public School,648.0,Primary School,Metropolitan East,Major Cities of Australia,-33.973045,151.128287,16.02857142857143,41.0
183,1515,Carool Public School,16.0,Primary School,Upper North Coast,Inner Regional Australia,-28.229959,153.4293,16.02857142857143,1.0
184,1517,Carrathool Public School,7.0,Primary School,Riverina 2,Outer Regional Australia,-34.409166,145.431622,16.02857142857143,1.0
185,1518,Carrington Public School,120.0,Primary School,Hunter,Major Cities of Australia,-32.912446,151.765328,16.02857142857143,8.0
186,1520,Carroll Public School,31.0,Primary School,North Western 1,Outer Regional Australia,-30.986074,150.447096,16.02857142857143,2.0
187,1526,Casino Public School,663.0,Primary School,Upper North Coast,Inner Regional Australia,-28.867384,153.048053,16.02857142857143,42.0
188,1527,Cassilis Public School,9.0,Primary School,Hunter,Outer Regional Australia,-32.004552,149.978075,16.02857142857143,1.0
189,1529,Castle Hill Public School,1082.0,Primary School,Metropolitan North,Major Cities of Australia,-33.727887,151.004663,16.02857142857143,68.0
190,1535,Cattai Public School,64.0,Primary School,Metropolitan West,Inner Regional Australia,-33.558762,150.906904,16.02857142857143,4.0
191,1537,Cawdor Public School,85.0,Primary School,Dharawal,Major Cities of Australia,-34.109711,150.673727,16.02857142857143,6.0
192,1542,Cessnock Public School,332.0,Primary School,Hunter,Inner Regional Australia,-32.840405,151.363808,16.02857142857143,21.0
193,1543,Cessnock East Public School,238.0,Primary School,Hunter,Inner Regional Australia,-32.827606,151.369746,16.02857142857143,15.0
194,1545,Cessnock West Public School,385.0,Primary School,Hunter,Inner Regional Australia,-32.838387,151.344863,16.02857142857143,24.0
195,1547,Chandler Public School,7.0,Primary School,North Western 2,Outer Regional Australia,-30.518553,152.053551,16.02857142857143,1.0
196,1548,The Channon Public School,25.0,Primary School,Upper North Coast,Inner Regional Australia,-28.675099,153.280288,16.02857142857143,2.0
197,1550,Charlestown Public School,170.0,Primary School,Hunter,Major Cities of Australia,-32.965494,151.697486,16.02857142857143,11.0
198,1551,Pacific Palms Public School,287.0,Primary School,Manning,Inner Regional Australia,-32.341023,152.539306,16.02857142857143,18.0
199,1553,Chatsworth Island Public School,52.0,Primary School,Upper North Coast,Inner Regional Australia,-29.387954,153.231645,16.02857142857143,4.0
200,1558,Chillingham Public School,31.0,Primary School,Upper North Coast,Inner Regional Australia,-28.311937,153.275569,16.02857142857143,2.0
201,1560,Chipping Norton Public School,333.0,Primary School,Metropolitan South West,Major Cities of Australia,-33.909108,150.96085,16.02857142857143,21.0
202,1564,Clarence Town Public School,128.0,Primary School,Hunter,Inner Regional Australia,-32.588731,151.777207,16.02857142857143,8.0
203,1566,Clemton Park Public School,591.0,Primary School,Metropolitan East,Major Cities of Australia,-33.929708,151.108423,16.02857142857143,37.0
204,1573,Clovelly Public School,602.0,Primary School,Metropolitan East,Major Cities of Australia,-33.907431,151.26028,16.02857142857143,38.0
205,1574,Clunes Public School,69.0,Primary School,Upper North Coast,Inner Regional Australia,-28.724778,153.408852,16.02857142857143,5.0
206,1578,Cobar Public School,217.0,Primary School,Western 2,Remote Australia,-31.502199,145.836609,16.02857142857143,14.0
207,1579,Cobargo Public School,75.0,Primary School,Lower South Coast,Outer Regional Australia,-36.386942,149.882818,16.02857142857143,5.0
208,1580,Cobbitty Public School,316.0,Primary School,Dharawal,Major Cities of Australia,-34.0159,150.685938,16.02857142857143,20.0
209,1583,Coffee Camp Public School,30.0,Primary School,Upper North Coast,Inner Regional Australia,-28.662664,153.220638,16.02857142857143,2.0
210,1584,Coffs Harbour Public School,472.0,Primary School,Lower North Coast,Inner Regional Australia,-30.30196,153.120372,16.02857142857143,30.0
211,1587,Coledale Public School,155.0,Primary School,Upper South Coast,Major Cities of Australia,-34.289546,150.947366,16.02857142857143,10.0
212,1590,Collector Public School,35.0,Primary School,Upper South Coast,Inner Regional Australia,-34.914221,149.433144,16.02857142857143,3.0
213,1593,Collins Creek Public School,10.0,Primary School,Upper North Coast,Inner Regional Australia,-28.489297,153.022547,16.02857142857143,1.0
214,1596,Colyton Public School,889.0,Primary School,Metropolitan West,Major Cities of Australia,-33.777199,150.81316,16.02857142857143,56.0
215,1601,Comboyne Public School,35.0,Primary School,Lower North Coast,Outer Regional Australia,-31.605308,152.472736,16.02857142857143,3.0
216,1604,Comleroy Road Public School,123.0,Primary School,Metropolitan West,Inner Regional Australia,-33.506475,150.69763,16.02857142857143,8.0
217,1605,Como Public School,104.0,Primary School,Metropolitan East,Major Cities of Australia,-34.001832,151.069127,16.02857142857143,7.0
218,1606,Conargo Public School,10.0,Primary School,Riverina 2,Outer Regional Australia,-35.305269,145.17886,16.02857142857143,1.0
219,1607,Concord Public School,302.0,Primary School,Metropolitan South West,Major Cities of Australia,-33.863224,151.106944,16.02857142857143,19.0
220,1608,Concord West Public School,351.0,Primary School,Metropolitan South West,Major Cities of Australia,-33.839613,151.087317,16.02857142857143,22.0
221,1609,Condobolin Public School,289.0,Primary School,Western 1,Outer Regional Australia,-33.085514,147.149077,16.02857142857143,18.0
222,1611,Condong Public School,58.0,Primary School,Upper North Coast,Major Cities of Australia,-28.309674,153.434424,16.02857142857143,4.0
223,1612,Coniston Public School,198.0,Primary School,Upper South Coast,Major Cities of Australia,-34.439023,150.887435,16.02857142857143,13.0
224,1613,Connells Point Public School,535.0,Primary School,Metropolitan East,Major Cities of Australia,-33.984689,151.100306,16.02857142857143,34.0
225,1615,Cooerwull Public School,407.0,Primary School,Western 1,Inner Regional Australia,-33.484053,150.142093,16.02857142857143,26.0
226,1616,Coogee Public School,599.0,Primary School,Metropolitan East,Major Cities of Australia,-33.920819,151.249846,16.02857142857143,38.0
227,1625,Shoalhaven Heads Public School,177.0,Primary School,Upper South Coast,Inner Regional Australia,-34.853167,150.740088,16.02857142857143,11.0
228,1627,Coolongolook Public School,21.0,Primary School,Manning,Inner Regional Australia,-32.222798,152.318838,16.02857142857143,2.0
229,1628,Cooma Public School,231.0,Primary School,Lower South Coast,Inner Regional Australia,-36.237474,149.125034,16.02857142857143,15.0
230,1630,Coonabarabran Public School,250.0,Primary School,North Western 1,Outer Regional Australia,-31.280039,149.282061,16.02857142857143,16.0
231,1631,Coonamble Public School,195.0,Primary School,North Western 1,Remote Australia,-30.958363,148.387024,16.02857142857143,13.0
232,1632,Coopernook Public School,45.0,Primary School,Manning,Inner Regional Australia,-31.827512,152.607874,16.02857142857143,3.0
233,1634,Coorabell Public School,127.0,Primary School,Upper North Coast,Inner Regional Australia,-28.625696,153.487492,16.02857142857143,8.0
234,1635,Cooranbong Public School,250.0,Primary School,Hunter,Major Cities of Australia,-33.0805,151.441793,16.02857142857143,16.0
235,1636,Cootamundra Public School,297.0,Primary School,Riverina 1,Inner Regional Australia,-34.638914,148.026809,16.02857142857143,19.0
236,1642,Copmanhurst Public School,72.0,Primary School,Upper North Coast,Outer Regional Australia,-29.584663,152.775537,16.02857142857143,5.0
237,1644,Coraki Public School,44.0,Primary School,Upper North Coast,Inner Regional Australia,-28.992589,153.282641,16.02857142857143,3.0
238,1647,Coramba Public School,41.0,Primary School,Lower North Coast,Inner Regional Australia,-30.221578,153.011513,16.02857142857143,3.0
239,1654,Corindi Public School,196.0,Primary School,Lower North Coast,Inner Regional Australia,-30.021469,153.194234,16.02857142857143,13.0
240,1656,Corndale Public School,22.0,Primary School,Upper North Coast,Inner Regional Australia,-28.71315,153.362489,16.02857142857143,2.0
241,1658,Corowa Public School,222.0,Primary School,Riverina 1,Inner Regional Australia,-35.992545,146.3949,16.02857142857143,14.0
242,1659,Corowa South Public School,52.0,Primary School,Riverina 1,Inner Regional Australia,-36.020988,146.376176,16.02857142857143,4.0
243,1661,Corrimal Public School,235.0,Primary School,Upper South Coast,Major Cities of Australia,-34.367371,150.899022,16.02857142857143,15.0
244,1666,Coutts Crossing Public School,87.0,Primary School,Upper North Coast,Inner Regional Australia,-29.832063,152.889484,16.02857142857143,6.0
245,1668,Cowan Public School,45.0,Primary School,Metropolitan North,Inner Regional Australia,-33.588808,151.168843,16.02857142857143,3.0
246,1670,Cowper Public School,13.0,Primary School,Upper North Coast,Outer Regional Australia,-29.56956,153.077731,16.02857142857143,1.0
247,1671,Cowra Public School,388.0,Primary School,Western 1,Inner Regional Australia,-33.836028,148.68992,16.02857142857143,25.0
248,1674,Crabbes Creek Public School,24.0,Primary School,Upper North Coast,Inner Regional Australia,-28.456004,153.496575,16.02857142857143,2.0
249,1681,Crescent Head Public School,185.0,Primary School,Lower North Coast,Outer Regional Australia,-31.188089,152.970345,16.02857142857143,12.0
250,1682,Cronulla Public School,470.0,Primary School,Metropolitan East,Major Cities of Australia,-34.054077,151.14773,16.02857142857143,30.0
251,1684,Crookwell Public School,181.0,Primary School,Upper South Coast,Inner Regional Australia,-34.459938,149.469806,16.02857142857143,12.0
252,1685,Crossmaglen Public School,32.0,Primary School,Lower North Coast,Inner Regional Australia,-30.365945,152.981586,16.02857142857143,2.0
253,1688,Buronga Public School,90.0,Primary School,Riverina 3,Outer Regional Australia,-34.169471,142.181315,16.02857142857143,6.0
254,1690,Crystal Creek Public School,70.0,Primary School,Upper North Coast,Inner Regional Australia,-28.31214,153.32596,16.02857142857143,5.0
255,1695,Cudal Public School,73.0,Primary School,Western 1,Outer Regional Australia,-33.287099,148.740307,16.02857142857143,5.0
256,1696,Cudgen Public School,184.0,Primary School,Upper North Coast,Major Cities of Australia,-28.262592,153.555416,16.02857142857143,12.0
257,1698,Culcairn Public School,113.0,Primary School,Riverina 1,Inner Regional Australia,-35.668284,147.039992,16.02857142857143,7.0
258,1700,Cullen Bullen Public School,15.0,Primary School,Western 1,Inner Regional Australia,-33.299877,150.032317,16.02857142857143,1.0
259,1707,Cumnock Public School,45.0,Primary School,Western 1,Outer Regional Australia,-32.931277,148.749492,16.02857142857143,3.0
260,1708,Cundletown Public School,332.0,Primary School,Manning,Inner Regional Australia,-31.899733,152.522008,16.02857142857143,21.0
261,1712,Curlewis Public School,56.0,Primary School,North Western 1,Outer Regional Australia,-31.117149,150.263304,16.02857142857143,4.0
262,1714,Currabubula Public School,27.0,Primary School,North Western 2,Outer Regional Australia,-31.262787,150.735709,16.02857142857143,2.0
263,1722,Dalgety Public School,12.0,Primary School,Lower South Coast,Outer Regional Australia,-36.502746,148.836675,16.02857142857143,1.0
264,1723,Dalton Public School,10.0,Primary School,Upper South Coast,Inner Regional Australia,-34.720369,149.17882,16.02857142857143,1.0
265,1727,Dapto Public School,744.0,Primary School,Upper South Coast,Major Cities of Australia,-34.494679,150.776781,16.02857142857143,47.0
266,1732,Dareton Public School,61.0,Primary School,Riverina 3,Outer Regional Australia,-34.091148,142.040358,16.02857142857143,4.0
267,1735,Darlington Public School,163.0,Primary School,Metropolitan East,Major Cities of Australia,-33.892638,151.18939,16.02857142857143,11.0
268,1736,Darlington Point Public School,67.0,Primary School,Riverina 1,Outer Regional Australia,-34.572807,145.993878,16.02857142857143,5.0
269,1740,Leeville Public School,71.0,Primary School,Upper North Coast,Inner Regional Australia,-28.930843,153.003537,16.02857142857143,5.0
270,1742,Deepwater Public School,28.0,Primary School,North Western 2,Outer Regional Australia,-29.442908,151.848086,16.02857142857143,2.0
271,1744,Dee Why Public School,554.0,Primary School,Metropolitan North,Major Cities of Australia,-33.749025,151.285209,16.02857142857143,35.0
272,1745,Delegate Public School,42.0,Primary School,Lower South Coast,Outer Regional Australia,-37.041739,148.937215,16.02857142857143,3.0
273,1747,Delungra Public School,26.0,Primary School,North Western 2,Outer Regional Australia,-29.650936,150.830977,16.02857142857143,2.0
274,1749,Denman Public School,154.0,Primary School,Hunter,Inner Regional Australia,-32.385734,150.686009,16.02857142857143,10.0
275,1760,Doonside Public School,268.0,Primary School,Metropolitan West,Major Cities of Australia,-33.764557,150.870497,16.02857142857143,17.0
276,1762,Dora Creek Public School,117.0,Primary School,Hunter,Major Cities of Australia,-33.07902,151.499217,16.02857142857143,8.0
277,1768,Double Bay Public School,313.0,Primary School,Metropolitan East,Major Cities of Australia,-33.874856,151.240894,16.02857142857143,20.0
278,1770,Douglas Park Public School,124.0,Primary School,Dharawal,Inner Regional Australia,-34.179484,150.713038,16.02857142857143,8.0
279,1771,Drake Public School,20.0,Primary School,Upper North Coast,Outer Regional Australia,-28.928798,152.374099,16.02857142857143,2.0
280,1774,Drummoyne Public School,619.0,Primary School,Metropolitan East,Major Cities of Australia,-33.856073,151.153035,16.02857142857143,39.0
281,1775,Dubbo Public School,521.0,Primary School,Western 1,Inner Regional Australia,-32.248749,148.60541,16.02857142857143,33.0
282,1776,Dubbo North Public School,265.0,Primary School,Western 1,Inner Regional Australia,-32.24168,148.615776,16.02857142857143,17.0
283,1778,Dudley Public School,254.0,Primary School,Hunter,Major Cities of Australia,-32.989387,151.716816,16.02857142857143,16.0
284,1780,Lismore Public School,250.0,Primary School,Upper North Coast,Inner Regional Australia,-28.814289,153.2909,16.02857142857143,16.0
285,1788,Dundurrabin Public School,21.0,Primary School,Lower North Coast,Outer Regional Australia,-30.189493,152.542649,16.02857142857143,2.0
286,1791,Dungay Public School,82.0,Primary School,Upper North Coast,Inner Regional Australia,-28.289681,153.382374,16.02857142857143,6.0
287,1792,Dungog Public School,253.0,Primary School,Hunter,Inner Regional Australia,-32.405233,151.757709,16.02857142857143,16.0
288,1793,Dungowan Public School,19.0,Primary School,North Western 2,Outer Regional Australia,-31.220126,151.13269,16.02857142857143,2.0
289,1797,Dunoon Public School,81.0,Primary School,Upper North Coast,Inner Regional Australia,-28.686735,153.315495,16.02857142857143,5.0
290,1799,Dural Public School,416.0,Primary School,Metropolitan North,Major Cities of Australia,-33.686057,151.026394,16.02857142857143,26.0
291,1801,Duranbah Public School,60.0,Primary School,Upper North Coast,Inner Regional Australia,-28.289121,153.516888,16.02857142857143,4.0
292,1802,Duri Public School,36.0,Primary School,North Western 2,Inner Regional Australia,-31.221359,150.829939,16.02857142857143,3.0
293,1803,Durrumbul Public School,9.0,Primary School,Upper North Coast,Inner Regional Australia,-28.523263,153.444576,16.02857142857143,1.0
294,1807,Earlwood Public School,650.0,Primary School,Metropolitan East,Major Cities of Australia,-33.928982,151.12238,16.02857142857143,41.0
295,1808,Eastern Creek Public School,315.0,Primary School,Metropolitan West,Major Cities of Australia,-33.787013,150.852624,16.02857142857143,20.0
296,1809,Panania Public School,470.0,Primary School,Metropolitan South West,Major Cities of Australia,-33.965972,150.99946,16.02857142857143,30.0
297,1811,Dubbo South Public School,659.0,Primary School,Western 1,Inner Regional Australia,-32.263126,148.609749,16.02857142857143,42.0
298,1813,Ebenezer Public School,152.0,Primary School,Metropolitan West,Inner Regional Australia,-33.530917,150.876774,16.02857142857143,10.0
299,1814,Ebor Public School,14.0,Primary School,North Western 2,Outer Regional Australia,-30.403293,152.349882,16.02857142857143,1.0
300,1816,Eden Public School,250.0,Primary School,Lower South Coast,Outer Regional Australia,-37.063271,149.906688,16.02857142857143,16.0
301,1822,Congewai Public School,12.0,Primary School,Hunter,Inner Regional Australia,-32.958736,151.273875,16.02857142857143,1.0
302,1823,Eglinton Public School,470.0,Primary School,Western 1,Inner Regional Australia,-33.37752,149.539343,16.02857142857143,30.0
303,1824,Elands Public School,12.0,Primary School,Manning,Outer Regional Australia,-31.619383,152.292291,16.02857142857143,1.0
304,1826,Ellalong Public School,125.0,Primary School,Hunter,Inner Regional Australia,-32.914749,151.311974,16.02857142857143,8.0
305,1830,Ellerston Public School,15.0,Primary School,Hunter,Outer Regional Australia,-31.81773,151.304369,16.02857142857143,1.0
306,1835,Eltham Public School,62.0,Primary School,Upper North Coast,Inner Regional Australia,-28.763663,153.408541,16.02857142857143,4.0
307,1839,Empire Bay Public School,477.0,Primary School,Central Coast,Major Cities of Australia,-33.504316,151.362889,16.02857142857143,30.0
308,1840,Empire Vale Public School,25.0,Primary School,Upper North Coast,Inner Regional Australia,-28.915114,153.506059,16.02857142857143,2.0
309,1841,Emu Plains Public School,433.0,Primary School,Metropolitan West,Major Cities of Australia,-33.755617,150.657739,16.02857142857143,27.0
310,1844,Enfield Public School,298.0,Primary School,Metropolitan South West,Major Cities of Australia,-33.888598,151.094528,16.02857142857143,19.0
311,1845,Engadine Public School,385.0,Primary School,Metropolitan East,Major Cities of Australia,-34.06335,151.012431,16.02857142857143,24.0
312,1849,The Entrance Public School,454.0,Primary School,Central Coast,Major Cities of Australia,-33.346741,151.493009,16.02857142857143,29.0
313,1850,Epping Public School,697.0,Primary School,Metropolitan North,Major Cities of Australia,-33.770727,151.087878,16.02857142857143,44.0
314,1851,Epping West Public School,1313.0,Primary School,Metropolitan North,Major Cities of Australia,-33.772789,151.068048,16.02857142857143,82.0
315,1856,Erina Heights Public School,296.0,Primary School,Central Coast,Major Cities of Australia,-33.428028,151.413585,16.02857142857143,19.0
316,1857,Woodport Public School,452.0,Primary School,Central Coast,Major Cities of Australia,-33.439347,151.37849,16.02857142857143,29.0
317,1860,Ermington Public School,415.0,Primary School,Metropolitan North,Major Cities of Australia,-33.804749,151.071574,16.02857142857143,26.0
318,1864,Ettalong Public School,535.0,Primary School,Central Coast,Major Cities of Australia,-33.513539,151.332702,16.02857142857143,34.0
319,1867,Euabalong West Public School,20.0,Primary School,Western 2,Remote Australia,-33.05583,146.397128,16.02857142857143,2.0
320,1870,Eugowra Public School,26.0,Primary School,Western 1,Outer Regional Australia,-33.423082,148.369286,16.02857142857143,2.0
321,1873,Eumungerie Public School,13.0,Primary School,Western 1,Outer Regional Australia,-31.951152,148.621075,16.02857142857143,1.0
322,1874,Eungai Public School,64.0,Primary School,Lower North Coast,Outer Regional Australia,-30.832071,152.874284,16.02857142857143,4.0
323,1879,Eureka Public School,31.0,Primary School,Upper North Coast,Inner Regional Australia,-28.687657,153.439223,16.02857142857143,2.0
324,1883,Eurongilly Public School,26.0,Primary School,Riverina 1,Outer Regional Australia,-34.91017,147.780957,16.02857142857143,2.0
325,1885,Euston Public School,90.0,Primary School,Riverina 2,Outer Regional Australia,-34.575588,142.744248,16.02857142857143,6.0
326,1890,Excelsior Public School,583.0,Primary School,Metropolitan West,Major Cities of Australia,-33.740444,150.990408,16.02857142857143,37.0
327,1891,Exeter Public School,139.0,Primary School,Upper South Coast,Inner Regional Australia,-34.61612,150.321828,16.02857142857143,9.0
328,1894,Fairfax Public School,8.0,Primary School,North Western 1,Outer Regional Australia,-30.493351,150.131265,16.02857142857143,1.0
329,1895,Fairfield Public School,569.0,Primary School,Metropolitan South West,Major Cities of Australia,-33.866847,150.955409,16.02857142857143,36.0
330,1896,Fairfield West Public School,724.0,Primary School,Metropolitan South West,Major Cities of Australia,-33.868037,150.924762,16.02857142857143,46.0
331,1898,Fairy Meadow Public School,365.0,Primary School,Upper South Coast,Major Cities of Australia,-34.390469,150.892302,16.02857142857143,23.0
332,1901,Falls Creek Public School,38.0,Primary School,Upper South Coast,Inner Regional Australia,-34.965439,150.593403,16.02857142857143,3.0
333,1904,Fassifern Public School,63.0,Primary School,Hunter,Major Cities of Australia,-32.983398,151.582769,16.02857142857143,4.0
334,1915,Fingal Head Public School,29.0,Primary School,Upper North Coast,Major Cities of Australia,-28.196814,153.565122,16.02857142857143,2.0
335,1920,Five Dock Public School,371.0,Primary School,Metropolitan East,Major Cities of Australia,-33.866859,151.127318,16.02857142857143,24.0
336,1926,Forbes Public School,303.0,Primary School,Western 1,Outer Regional Australia,-33.387948,148.006385,16.02857142857143,19.0
337,1930,Forest Hill Public School,239.0,Primary School,Riverina 1,Inner Regional Australia,-35.147875,147.467,16.02857142857143,15.0
338,1932,Forest Lodge Public School,356.0,Primary School,Metropolitan East,Major Cities of Australia,-33.882169,151.181597,16.02857142857143,23.0
339,1936,Forster Public School,746.0,Primary School,Manning,Inner Regional Australia,-32.18247,152.524246,16.02857142857143,47.0
340,1937,Fort Street Public School,215.0,Primary School,Metropolitan East,Major Cities of Australia,-33.860427,151.204871,16.02857142857143,14.0
341,1943,Frederickton Public School,138.0,Primary School,Lower North Coast,Inner Regional Australia,-31.033583,152.879353,16.02857142857143,9.0
342,1944,Freemans Reach Public School,175.0,Primary School,Metropolitan West,Major Cities of Australia,-33.558697,150.799309,16.02857142857143,11.0
343,1946,Frenchs Forest Public School,234.0,Primary School,Metropolitan North,Major Cities of Australia,-33.751516,151.224695,16.02857142857143,15.0
344,1952,Galston Public School,232.0,Primary School,Metropolitan North,Major Cities of Australia,-33.648197,151.04517,16.02857142857143,15.0
345,1954,Ganmain Public School,30.0,Primary School,Riverina 1,Outer Regional Australia,-34.796923,147.040034,16.02857142857143,2.0
346,1956,Garah Public School,13.0,Primary School,North Western 1,Remote Australia,-29.077177,149.634928,16.02857142857143,1.0
347,1969,Gerogery Public School,18.0,Primary School,Riverina 1,Inner Regional Australia,-35.83213,146.998143,16.02857142857143,2.0
348,1971,Gerringong Public School,439.0,Primary School,Upper South Coast,Inner Regional Australia,-34.749384,150.821499,16.02857142857143,28.0
349,1972,Geurie Public School,21.0,Primary School,Western 1,Outer Regional Australia,-32.3961,148.82945,16.02857142857143,2.0
350,1974,Sandy Hollow Public School,19.0,Primary School,Hunter,Inner Regional Australia,-32.336471,150.569007,16.02857142857143,2.0
351,1978,Gilgai Public School,54.0,Primary School,North Western 2,Outer Regional Australia,-29.852694,151.115555,16.02857142857143,4.0
352,1979,Gilgandra Public School,206.0,Primary School,North Western 1,Outer Regional Australia,-31.707981,148.66464,16.02857142857143,13.0
353,1982,Gillieston Public School,215.0,Primary School,Hunter,Major Cities of Australia,-32.75232,151.530713,16.02857142857143,14.0
354,1986,Girilambone Public School,13.0,Primary School,Western 2,Remote Australia,-31.24967,146.908851,16.02857142857143,1.0
355,1988,Girraween Public School,1294.0,Primary School,Metropolitan West,Major Cities of Australia,-33.799711,150.950356,16.02857142857143,81.0
356,1990,Gladesville Public School,515.0,Primary School,Metropolitan North,Major Cities of Australia,-33.832977,151.125699,16.02857142857143,33.0
357,1991,Gladstone Public School,25.0,Primary School,Lower North Coast,Outer Regional Australia,-31.026485,152.946508,16.02857142857143,2.0
358,1992,Windang Public School,154.0,Primary School,Upper South Coast,Major Cities of Australia,-34.531496,150.86597,16.02857142857143,10.0
359,1994,Glenbrook Public School,307.0,Primary School,Metropolitan West,Major Cities of Australia,-33.765996,150.621286,16.02857142857143,20.0
360,2001,Glenfield Public School,439.0,Primary School,Metropolitan South West,Major Cities of Australia,-33.971005,150.896584,16.02857142857143,28.0
361,2003,Glenhaven Public School,417.0,Primary School,Metropolitan North,Major Cities of Australia,-33.700792,151.002882,16.02857142857143,26.0
362,2005,Glen Innes Public School,378.0,Primary School,North Western 2,Outer Regional Australia,-29.735142,151.740989,16.02857142857143,24.0
363,2009,Glenmore Road Public School,377.0,Primary School,Metropolitan East,Major Cities of Australia,-33.881385,151.230233,16.02857142857143,24.0
364,2012,Glenorie Public School,292.0,Primary School,Metropolitan North,Inner Regional Australia,-33.599444,151.008082,16.02857142857143,19.0
365,2015,Glenquarry Public School,24.0,Primary School,Upper South Coast,Inner Regional Australia,-34.522335,150.483539,16.02857142857143,2.0
366,2016,Glenreagh Public School,60.0,Primary School,Upper North Coast,Outer Regional Australia,-30.053582,152.976339,16.02857142857143,4.0
367,2020,Glen William Public School,37.0,Primary School,Hunter,Inner Regional Australia,-32.525391,151.79794,16.02857142857143,3.0
368,2021,Glossodia Public School,203.0,Primary School,Metropolitan West,Inner Regional Australia,-33.530504,150.765471,16.02857142857143,13.0
369,2027,Gol Gol Public School,171.0,Primary School,Riverina 3,Outer Regional Australia,-34.179608,142.222652,16.02857142857143,11.0
370,2035,Goolgowi Public School,35.0,Primary School,Riverina 2,Outer Regional Australia,-33.97571,145.709221,16.02857142857143,3.0
371,2036,Goolma Public School,7.0,Primary School,North Western 1,Outer Regional Australia,-32.3688,149.26901,16.02857142857143,1.0
372,2037,Goolmangar Public School,13.0,Primary School,Upper North Coast,Inner Regional Australia,-28.709747,153.23169,16.02857142857143,1.0
373,2038,Gooloogong Public School,23.0,Primary School,Western 1,Outer Regional Australia,-33.617104,148.436422,16.02857142857143,2.0
374,2041,Goonellabah Public School,266.0,Primary School,Upper North Coast,Inner Regional Australia,-28.818329,153.322306,16.02857142857143,17.0
375,2042,Goonengerry Public School,51.0,Primary School,Upper North Coast,Inner Regional Australia,-28.609512,153.439753,16.02857142857143,4.0
376,2049,Gosford Public School,544.0,Primary School,Central Coast,Major Cities of Australia,-33.42075,151.33449,16.02857142857143,34.0
377,2053,Goulburn Public School,167.0,Primary School,Upper South Coast,Inner Regional Australia,-34.750563,149.717773,16.02857142857143,11.0
378,2054,Goulburn East Public School,155.0,Primary School,Upper South Coast,Inner Regional Australia,-34.7626,149.730388,16.02857142857143,10.0
379,2055,Goulburn North Public School,264.0,Primary School,Upper South Coast,Inner Regional Australia,-34.744579,149.735043,16.02857142857143,17.0
380,2056,Goulburn South Public School,160.0,Primary School,Upper South Coast,Inner Regional Australia,-34.76004,149.712314,16.02857142857143,10.0
381,2060,Grafton Public School,559.0,Primary School,Upper North Coast,Inner Regional Australia,-29.68499,152.933325,16.02857142857143,35.0
382,2061,South Grafton Public School,606.0,Primary School,Upper North Coast,Inner Regional Australia,-29.709892,152.937126,16.02857142857143,38.0
383,2064,Granville Public School,565.0,Primary School,Metropolitan South West,Major Cities of Australia,-33.834264,151.004671,16.02857142857143,36.0
384,2066,Granville South Public School,348.0,Primary School,Metropolitan South West,Major Cities of Australia,-33.848289,150.995883,16.02857142857143,22.0
385,2068,Gravesend Public School,23.0,Primary School,North Western 1,Outer Regional Australia,-29.585367,150.332417,16.02857142857143,2.0
386,2070,Greenethorpe Public School,14.0,Primary School,Western 1,Outer Regional Australia,-33.997714,148.400139,16.02857142857143,1.0
387,2071,Green Hill Public School,27.0,Primary School,Lower North Coast,Inner Regional Australia,-31.059616,152.802757,16.02857142857143,2.0
388,2075,Green Valley Public School,425.0,Primary School,Metropolitan South West,Major Cities of Australia,-33.90074,150.868972,16.02857142857143,27.0
389,2076,Greenwich Public School,466.0,Primary School,Metropolitan North,Major Cities of Australia,-33.82587,151.183252,16.02857142857143,29.0
390,2082,Grenfell Public School,152.0,Primary School,Western 1,Outer Regional Australia,-33.892296,148.167544,16.02857142857143,10.0
391,2083,Gresford Public School,86.0,Primary School,Hunter,Inner Regional Australia,-32.427628,151.538335,16.02857142857143,6.0
392,2084,Greta Public School,184.0,Primary School,Hunter,Inner Regional Australia,-32.680083,151.38721,16.02857142857143,12.0
393,2086,Greystanes Public School,696.0,Primary School,Metropolitan West,Major Cities of Australia,-33.828043,150.941111,16.02857142857143,44.0
394,2087,Griffith Public School,359.0,Primary School,Riverina 1,Outer Regional Australia,-34.291396,146.036252,16.02857142857143,23.0
395,2093,Guildford Public School,585.0,Primary School,Metropolitan South West,Major Cities of Australia,-33.855821,150.981983,16.02857142857143,37.0
396,2097,Gulgong Public School,315.0,Primary School,North Western 1,Outer Regional Australia,-32.359746,149.537692,16.02857142857143,20.0
397,2099,Gulmarrad Public School,195.0,Primary School,Upper North Coast,Inner Regional Australia,-29.489242,153.233572,16.02857142857143,13.0
398,2100,Gum Flat Public School,21.0,Primary School,North Western 2,Outer Regional Australia,-29.779563,150.979221,16.02857142857143,2.0
399,2102,Gundagai Public School,158.0,Primary School,Riverina 1,Inner Regional Australia,-35.052146,148.109174,16.02857142857143,10.0
400,2103,Gundagai South Public School,30.0,Primary School,Riverina 1,Inner Regional Australia,-35.080802,148.103086,16.02857142857143,2.0
401,2104,Gundaroo Public School,118.0,Primary School,Upper South Coast,Inner Regional Australia,-35.029909,149.267076,16.02857142857143,8.0
402,2109,Gunnedah Public School,164.0,Primary School,North Western 1,Outer Regional Australia,-30.977491,150.256335,16.02857142857143,11.0
403,2111,Gunning Public School,114.0,Primary School,Upper South Coast,Inner Regional Australia,-34.783525,149.265602,16.02857142857143,8.0
404,2115,Gwabegar Public School,7.0,Primary School,North Western 1,Remote Australia,-30.611489,148.974999,16.02857142857143,1.0
405,2116,Gymea Bay Public School,788.0,Primary School,Metropolitan East,Major Cities of Australia,-34.046905,151.082825,16.02857142857143,50.0
406,2117,Haberfield Public School,654.0,Primary School,Metropolitan East,Major Cities of Australia,-33.879467,151.134002,16.02857142857143,41.0
407,2128,Hammondville Public School,441.0,Primary School,Metropolitan South West,Major Cities of Australia,-33.947273,150.954525,16.02857142857143,28.0
408,2129,Hampton Public School,4.0,Primary School,Western 1,Inner Regional Australia,-33.648479,150.048925,16.02857142857143,1.0
409,2131,Hannam Vale Public School,18.0,Primary School,Manning,Inner Regional Australia,-31.712949,152.594024,16.02857142857143,2.0
410,2132,Hanwood Public School,219.0,Primary School,Riverina 1,Outer Regional Australia,-34.329726,146.04237,16.02857142857143,14.0
411,2133,Harbord Public School,1062.0,Primary School,Metropolitan North,Major Cities of Australia,-33.772164,151.286531,16.02857142857143,67.0
412,2136,Hargraves Public School,29.0,Primary School,North Western 1,Outer Regional Australia,-32.783336,149.461924,16.02857142857143,2.0
413,2139,Harrington Public School,115.0,Primary School,Manning,Inner Regional Australia,-31.870234,152.688803,16.02857142857143,8.0
414,2142,Harwood Island Public School,49.0,Primary School,Upper North Coast,Inner Regional Australia,-29.425605,153.240299,16.02857142857143,3.0
415,2145,Hay Public School,180.0,Primary School,Riverina 2,Outer Regional Australia,-34.506048,144.84541,16.02857142857143,12.0
416,2149,Heathcote Public School,323.0,Primary School,Metropolitan East,Major Cities of Australia,-34.086704,151.007321,16.02857142857143,21.0
417,2153,Helensburgh Public School,442.0,Primary School,Upper South Coast,Major Cities of Australia,-34.184207,150.988393,16.02857142857143,28.0
418,2154,Henty Public School,96.0,Primary School,Riverina 1,Inner Regional Australia,-35.517474,147.031248,16.02857142857143,6.0
419,2155,Hermidale Public School,13.0,Primary School,Western 2,Remote Australia,-31.551165,146.723373,16.02857142857143,1.0
420,2156,Hernani Public School,6.0,Primary School,Lower North Coast,Outer Regional Australia,-30.294514,152.422727,16.02857142857143,1.0
421,2157,Herons Creek Public School,27.0,Primary School,Manning,Inner Regional Australia,-31.580394,152.729988,16.02857142857143,2.0
422,2161,Hill End Public School,7.0,Primary School,North Western 1,Outer Regional Australia,-33.034573,149.415886,16.02857142857143,1.0
423,2164,Hillside Public School,19.0,Primary School,Metropolitan North,Inner Regional Australia,-33.601784,150.976151,16.02857142857143,2.0
424,2166,Hill Top Public School,120.0,Primary School,Upper South Coast,Inner Regional Australia,-34.354826,150.491396,16.02857142857143,8.0
425,2167,Hinton Public School,99.0,Primary School,Hunter,Major Cities of Australia,-32.716733,151.650674,16.02857142857143,7.0
426,2170,Holbrook Public School,151.0,Primary School,Riverina 1,Inner Regional Australia,-35.717853,147.318953,16.02857142857143,10.0
427,2171,Holgate Public School,160.0,Primary School,Central Coast,Major Cities of Australia,-33.405106,151.407722,16.02857142857143,10.0
428,2172,Holmwood Public School,40.0,Primary School,Western 1,Inner Regional Australia,-33.810597,148.756777,16.02857142857143,3.0
429,2173,Homebush Public School,518.0,Primary School,Metropolitan South West,Major Cities of Australia,-33.867319,151.08523,16.02857142857143,33.0
430,2177,Telarah Public School,418.0,Primary School,Hunter,Major Cities of Australia,-32.7252,151.532379,16.02857142857143,26.0
431,2182,Horsley Park Public School,91.0,Primary School,Metropolitan South West,Major Cities of Australia,-33.840414,150.852683,16.02857142857143,6.0
432,2186,Howlong Public School,208.0,Primary School,Riverina 1,Inner Regional Australia,-35.979939,146.636764,16.02857142857143,13.0
433,2187,Hoxton Park Public School,686.0,Primary School,Metropolitan South West,Major Cities of Australia,-33.931881,150.849626,16.02857142857143,43.0
434,2188,Humula Public School,17.0,Primary School,Riverina 1,Outer Regional Australia,-35.483339,147.760583,16.02857142857143,1.0
435,2189,Hunters Hill Public School,328.0,Primary School,Metropolitan North,Major Cities of Australia,-33.835121,151.151254,16.02857142857143,21.0
436,2190,Huntingdon Public School,38.0,Primary School,Lower North Coast,Inner Regional Australia,-31.478214,152.660607,16.02857142857143,3.0
437,2193,Rathmines Public School,359.0,Primary School,Hunter,Major Cities of Australia,-33.042628,151.5899,16.02857142857143,23.0
438,2197,Hurstville Public School,1222.0,Primary School,Metropolitan East,Major Cities of Australia,-33.964695,151.110728,16.02857142857143,77.0
439,2198,Hurstville South Public School,530.0,Primary School,Metropolitan East,Major Cities of Australia,-33.972516,151.099252,16.02857142857143,33.0
440,2199,Huskisson Public School,192.0,Primary School,Upper South Coast,Inner Regional Australia,-35.036821,150.668104,16.02857142857143,12.0
441,2201,Ilford Public School,25.0,Primary School,North Western 1,Outer Regional Australia,-32.966702,149.855478,16.02857142857143,2.0
442,2203,Illabo Public School,30.0,Primary School,Riverina 1,Outer Regional Australia,-34.814002,147.741165,16.02857142857143,2.0
443,2204,Iluka Public School,101.0,Primary School,Upper North Coast,Inner Regional Australia,-29.404676,153.348938,16.02857142857143,7.0
444,2206,Ingleburn Public School,544.0,Primary School,Metropolitan South West,Major Cities of Australia,-34.000332,150.866612,16.02857142857143,34.0
445,2209,Inverell Public School,532.0,Primary School,North Western 2,Outer Regional Australia,-29.773135,151.123016,16.02857142857143,34.0
446,2211,Iona Public School,47.0,Primary School,Hunter,Inner Regional Australia,-32.665063,151.604218,16.02857142857143,3.0
447,2212,Islington Public School,167.0,Primary School,Hunter,Major Cities of Australia,-32.911412,151.744091,16.02857142857143,11.0
448,2214,Fernleigh Public School,39.0,Primary School,Upper North Coast,Inner Regional Australia,-28.76765,153.498399,16.02857142857143,3.0
449,2218,Jamberoo Public School,142.0,Primary School,Upper South Coast,Inner Regional Australia,-34.644622,150.773003,16.02857142857143,9.0
450,2223,Jennings Public School,19.0,Primary School,North Western 2,Outer Regional Australia,-28.927243,151.934357,16.02857142857143,2.0
451,2226,Jerilderie Public School,32.0,Primary School,Riverina 2,Outer Regional Australia,-35.354598,145.728865,16.02857142857143,2.0
452,2231,Jerrys Plains Public School,34.0,Primary School,Hunter,Inner Regional Australia,-32.49723,150.905944,16.02857142857143,3.0
453,2234,Jesmond Public School,209.0,Primary School,Hunter,Major Cities of Australia,-32.903841,151.695427,16.02857142857143,13.0
454,2235,Jiggi Public School,28.0,Primary School,Upper North Coast,Inner Regional Australia,-28.677986,153.181368,16.02857142857143,2.0
455,2236,Jilliby Public School,74.0,Primary School,Central Coast,Inner Regional Australia,-33.239937,151.380052,16.02857142857143,5.0
456,2239,Jindera Public School,163.0,Primary School,Riverina 1,Inner Regional Australia,-35.959036,146.886741,16.02857142857143,11.0
457,2243,Johns River Public School,8.0,Primary School,Manning,Inner Regional Australia,-31.733013,152.696599,16.02857142857143,1.0
458,2245,Jugiong Public School,19.0,Primary School,Riverina 1,Outer Regional Australia,-34.820203,148.335447,16.02857142857143,2.0
459,2246,The Junction Public School,545.0,Primary School,Hunter,Major Cities of Australia,-32.939964,151.758644,16.02857142857143,34.0
460,2247,Junee Public School,110.0,Primary School,Riverina 1,Inner Regional Australia,-34.873488,147.584901,16.02857142857143,7.0
461,2248,Junee North Public School,142.0,Primary School,Riverina 1,Inner Regional Australia,-34.855049,147.585376,16.02857142857143,9.0
462,2254,Kandos Public School,143.0,Primary School,North Western 1,Inner Regional Australia,-32.856242,149.974813,16.02857142857143,9.0
463,2255,Kangaloon Public School,31.0,Primary School,Upper South Coast,Inner Regional Australia,-34.552607,150.529555,16.02857142857143,2.0
464,2256,Kangaroo Valley Public School,76.0,Primary School,Upper South Coast,Inner Regional Australia,-34.73652,150.531996,16.02857142857143,5.0
465,2259,Kanwal Public School,614.0,Primary School,Central Coast,Major Cities of Australia,-33.262456,151.484884,16.02857142857143,39.0
466,2260,Karangi Public School,74.0,Primary School,Lower North Coast,Inner Regional Australia,-30.252411,153.047767,16.02857142857143,5.0
467,2263,Karuah Public School,138.0,Primary School,Hunter,Inner Regional Australia,-32.654344,151.966595,16.02857142857143,9.0
468,2267,Kearsley Public School,118.0,Primary School,Hunter,Inner Regional Australia,-32.857249,151.395921,16.02857142857143,8.0
469,2270,Kegworth Public School,337.0,Primary School,Metropolitan East,Major Cities of Australia,-33.886514,151.14693,16.02857142857143,21.0
470,2271,Keiraville Public School,330.0,Primary School,Upper South Coast,Major Cities of Australia,-34.414114,150.873364,16.02857142857143,21.0
471,2273,Kellys Plains Public School,21.0,Primary School,North Western 2,Outer Regional Australia,-30.571911,151.636504,16.02857142857143,2.0
472,2274,Kellyville Public School,781.0,Primary School,Metropolitan West,Major Cities of Australia,-33.711052,150.957887,16.02857142857143,49.0
473,2275,Kelso Public School,287.0,Primary School,Western 1,Inner Regional Australia,-33.416969,149.605156,16.02857142857143,18.0
474,2278,Kempsey East Public School,192.0,Primary School,Lower North Coast,Inner Regional Australia,-31.083703,152.846861,16.02857142857143,12.0
475,2279,Kempsey West Public School,402.0,Primary School,Lower North Coast,Inner Regional Australia,-31.078377,152.8301,16.02857142857143,25.0
476,2280,Kendall Public School,221.0,Primary School,Manning,Inner Regional Australia,-31.627392,152.702756,16.02857142857143,14.0
477,2283,Kensington Public School,462.0,Primary School,Metropolitan East,Major Cities of Australia,-33.909604,151.224965,16.02857142857143,29.0
478,2284,Kenthurst Public School,217.0,Primary School,Metropolitan North,Major Cities of Australia,-33.665603,151.004575,16.02857142857143,14.0
479,2285,Kentlyn Public School,117.0,Primary School,Dharawal,Major Cities of Australia,-34.073132,150.858576,16.02857142857143,8.0
480,2286,Kentucky Public School,36.0,Primary School,North Western 2,Outer Regional Australia,-30.759618,151.449162,16.02857142857143,3.0
481,2293,Kiama Public School,544.0,Primary School,Upper South Coast,Inner Regional Australia,-34.669659,150.850567,16.02857142857143,34.0
482,2303,Kinchela Public School,19.0,Primary School,Lower North Coast,Outer Regional Australia,-30.991064,152.995063,16.02857142857143,2.0
483,2304,Kincumber Public School,420.0,Primary School,Central Coast,Major Cities of Australia,-33.468184,151.394355,16.02857142857143,27.0
484,2307,Kingsgrove Public School,437.0,Primary School,Metropolitan East,Major Cities of Australia,-33.947822,151.10156,16.02857142857143,28.0
485,2308,Bexley North Public School,542.0,Primary School,Metropolitan East,Major Cities of Australia,-33.940838,151.120374,16.02857142857143,34.0
486,2310,Kingstown Public School,14.0,Primary School,North Western 2,Outer Regional Australia,-30.506681,151.116405,16.02857142857143,1.0
487,2312,Kingswood Public School,529.0,Primary School,Metropolitan West,Major Cities of Australia,-33.765884,150.726509,16.02857142857143,33.0
488,2314,Kirkton Public School,21.0,Primary School,Hunter,Inner Regional Australia,-32.609773,151.290092,16.02857142857143,2.0
489,2315,Kitchener Public School,90.0,Primary School,Hunter,Inner Regional Australia,-32.87782,151.369977,16.02857142857143,6.0
490,2319,Kogarah Public School,473.0,Primary School,Metropolitan East,Major Cities of Australia,-33.962028,151.136618,16.02857142857143,30.0
491,2326,Koorawatha Public School,10.0,Primary School,Western 1,Outer Regional Australia,-34.034936,148.559705,16.02857142857143,1.0
492,2327,Kootingal Public School,188.0,Primary School,North Western 2,Inner Regional Australia,-31.053487,151.053682,16.02857142857143,12.0
493,2330,Kororo Public School,621.0,Primary School,Lower North Coast,Inner Regional Australia,-30.254553,153.131921,16.02857142857143,39.0
494,2333,Krambach Public School,31.0,Primary School,Manning,Inner Regional Australia,-32.046146,152.272293,16.02857142857143,2.0
495,2334,Kulnura Public School,38.0,Primary School,Central Coast,Inner Regional Australia,-33.232582,151.216011,16.02857142857143,3.0
496,2340,Kurmond Public School,155.0,Primary School,Metropolitan West,Inner Regional Australia,-33.549715,150.692309,16.02857142857143,10.0
497,2341,Kurnell Public School,206.0,Primary School,Metropolitan East,Major Cities of Australia,-34.010156,151.203773,16.02857142857143,13.0
498,2342,Kurrajong Public School,243.0,Primary School,Metropolitan West,Inner Regional Australia,-33.555196,150.662653,16.02857142857143,16.0
499,2343,Kurrajong East Public School,82.0,Primary School,Metropolitan West,Inner Regional Australia,-33.511172,150.77726,16.02857142857143,6.0
500,2344,Kurrajong North Public School,89.0,Primary School,Metropolitan West,Inner Regional Australia,-33.541815,150.639446,16.02857142857143,6.0
501,2349,Kyogle Public School,300.0,Primary School,Upper North Coast,Inner Regional Australia,-28.625165,153.003916,16.02857142857143,19.0
502,2353,Ladysmith Public School,30.0,Primary School,Riverina 1,Inner Regional Australia,-35.208549,147.510963,16.02857142857143,2.0
503,2354,Laggan Public School,6.0,Primary School,Upper South Coast,Inner Regional Australia,-34.406246,149.527721,16.02857142857143,1.0
504,2356,Laguna Public School,55.0,Primary School,Hunter,Inner Regional Australia,-32.992121,151.130526,16.02857142857143,4.0
505,2357,Lake Albert Public School,502.0,Primary School,Riverina 1,Inner Regional Australia,-35.173563,147.37924,16.02857142857143,32.0
506,2360,Lakemba Public School,457.0,Primary School,Metropolitan South West,Major Cities of Australia,-33.923615,151.070046,16.02857142857143,29.0
507,2362,Lake Munmorah Public School,419.0,Primary School,Central Coast,Major Cities of Australia,-33.1882,151.575559,16.02857142857143,27.0
508,2363,Lake Wyangan Public School,91.0,Primary School,Riverina 2,Outer Regional Australia,-34.248183,146.034238,16.02857142857143,6.0
509,2366,Lambton Public School,363.0,Primary School,Hunter,Major Cities of Australia,-32.911705,151.704134,16.02857142857143,23.0
510,2368,Lane Cove Public School,826.0,Primary School,Metropolitan North,Major Cities of Australia,-33.816514,151.169134,16.02857142857143,52.0
511,2370,Lansdowne Public School,34.0,Primary School,Manning,Inner Regional Australia,-31.783944,152.532056,16.02857142857143,3.0
512,2372,Upper Lansdowne Public School,12.0,Primary School,Manning,Inner Regional Australia,-31.705206,152.467389,16.02857142857143,1.0
513,2373,La Perouse Public School,70.0,Primary School,Metropolitan East,Major Cities of Australia,-33.978352,151.235423,16.02857142857143,5.0
514,2374,Largs Public School,140.0,Primary School,Hunter,Major Cities of Australia,-32.700491,151.60564,16.02857142857143,9.0
515,2375,Larnook Public School,20.0,Primary School,Upper North Coast,Inner Regional Australia,-28.648612,153.114765,16.02857142857143,2.0
516,2377,Laurieton Public School,183.0,Primary School,Manning,Inner Regional Australia,-31.651768,152.797491,16.02857142857143,12.0
517,2378,Lavington Public School,435.0,Primary School,Riverina 1,Inner Regional Australia,-36.037411,146.928265,16.02857142857143,28.0
518,2379,Lawrence Public School,54.0,Primary School,Upper North Coast,Outer Regional Australia,-29.491625,153.100368,16.02857142857143,4.0
519,2381,Lawson Public School,203.0,Primary School,Metropolitan West,Major Cities of Australia,-33.721217,150.428243,16.02857142857143,13.0
520,2386,Leeton Public School,338.0,Primary School,Riverina 1,Outer Regional Australia,-34.546126,146.407232,16.02857142857143,21.0
521,2391,Leura Public School,232.0,Primary School,Metropolitan West,Major Cities of Australia,-33.711151,150.336733,16.02857142857143,15.0
522,2394,Lidcombe Public School,820.0,Primary School,Metropolitan South West,Major Cities of Australia,-33.861019,151.046926,16.02857142857143,52.0
523,2403,Lindfield Public School,878.0,Primary School,Metropolitan North,Major Cities of Australia,-33.78075,151.168917,16.02857142857143,55.0
524,2404,Lindfield East Public School,644.0,Primary School,Metropolitan North,Major Cities of Australia,-33.767479,151.18429,16.02857142857143,41.0
525,2407,Lisarow Public School,228.0,Primary School,Central Coast,Major Cities of Australia,-33.381283,151.376296,16.02857142857143,15.0
526,2409,Lismore South Public School,210.0,Primary School,Upper North Coast,Inner Regional Australia,-28.809502,153.262056,16.02857142857143,14.0
527,2410,Lithgow Public School,381.0,Primary School,Western 1,Inner Regional Australia,-33.482092,150.160227,16.02857142857143,24.0
528,2413,Llandilo Public School,323.0,Primary School,Metropolitan West,Major Cities of Australia,-33.707237,150.751783,16.02857142857143,21.0
529,2417,Lochinvar Public School,163.0,Primary School,Hunter,Inner Regional Australia,-32.700305,151.451988,16.02857142857143,11.0
530,2421,Londonderry Public School,233.0,Primary School,Metropolitan West,Major Cities of Australia,-33.647454,150.736905,16.02857142857143,15.0
531,2423,Long Flat Public School,53.0,Primary School,Lower North Coast,Inner Regional Australia,-31.437823,152.48612,16.02857142857143,4.0
532,2428,Lowanna Public School,20.0,Primary School,Lower North Coast,Outer Regional Australia,-30.20722,152.899923,16.02857142857143,2.0
533,2429,Lowesdale Public School,14.0,Primary School,Riverina 1,Inner Regional Australia,-35.856229,146.368662,16.02857142857143,1.0
534,2431,Luddenham Public School,69.0,Primary School,Metropolitan West,Inner Regional Australia,-33.881331,150.691523,16.02857142857143,5.0
535,2432,Lue Public School,25.0,Primary School,North Western 1,Outer Regional Australia,-32.656339,149.844616,16.02857142857143,2.0
536,2436,Lyndhurst Public School,13.0,Primary School,Western 1,Outer Regional Australia,-33.673266,149.044914,16.02857142857143,1.0
537,2439,Macdonald Valley Public School,14.0,Primary School,Metropolitan West,Inner Regional Australia,-33.321271,150.971993,16.02857142857143,1.0
538,2444,Macksville Public School,305.0,Primary School,Lower North Coast,Outer Regional Australia,-30.707763,152.917145,16.02857142857143,19.0
539,2448,Maimuru Public School,14.0,Primary School,Riverina 1,Outer Regional Australia,-34.243066,148.214319,16.02857142857143,1.0
540,2451,Maitland East Public School,511.0,Primary School,Hunter,Major Cities of Australia,-32.748991,151.585256,16.02857142857143,32.0
541,2454,Malabar Public School,300.0,Primary School,Metropolitan East,Major Cities of Australia,-33.962214,151.248559,16.02857142857143,19.0
542,2460,Mandurama Public School,7.0,Primary School,Western 1,Outer Regional Australia,-33.65148,149.069495,16.02857142857143,1.0
543,2464,Manifold Public School,25.0,Primary School,Upper North Coast,Inner Regional Australia,-28.749066,153.077066,16.02857142857143,2.0
544,2465,Manildra Public School,65.0,Primary School,Western 1,Outer Regional Australia,-33.184214,148.700122,16.02857142857143,4.0
545,2469,Manly West Public School,866.0,Primary School,Metropolitan North,Major Cities of Australia,-33.791875,151.268753,16.02857142857143,54.0
546,2472,Maraylya Public School,118.0,Primary School,Metropolitan West,Inner Regional Australia,-33.592681,150.916264,16.02857142857143,8.0
547,2476,Pelican Flat Public School,73.0,Primary School,Hunter,Major Cities of Australia,-33.074333,151.648248,16.02857142857143,5.0
548,2480,Maroota Public School,34.0,Primary School,Metropolitan West,Inner Regional Australia,-33.455283,150.99365,16.02857142857143,3.0
549,2482,Maroubra Bay Public School,397.0,Primary School,Metropolitan East,Major Cities of Australia,-33.944236,151.253017,16.02857142857143,25.0
550,2485,Marrar Public School,13.0,Primary School,Riverina 1,Inner Regional Australia,-34.828341,147.355155,16.02857142857143,1.0
551,2489,Marsden Park Public School,526.0,Primary School,Metropolitan West,Major Cities of Australia,-33.696425,150.833642,16.02857142857143,33.0
552,2492,Martindale Public School,19.0,Primary School,Hunter,Outer Regional Australia,-32.458834,150.665723,16.02857142857143,2.0
553,2493,Martins Creek Public School,7.0,Primary School,Hunter,Inner Regional Australia,-32.565996,151.623453,16.02857142857143,1.0
554,2494,Martins Gully Public School,161.0,Primary School,North Western 2,Inner Regional Australia,-30.523938,151.637256,16.02857142857143,10.0
555,2496,Marulan Public School,101.0,Primary School,Upper South Coast,Inner Regional Australia,-34.713399,150.006603,16.02857142857143,7.0
556,2499,Mascot Public School,368.0,Primary School,Metropolitan East,Major Cities of Australia,-33.928577,151.192485,16.02857142857143,23.0
557,2500,Mathoura Public School,53.0,Primary School,Riverina 2,Outer Regional Australia,-35.816079,144.902097,16.02857142857143,4.0
558,2501,Matong Public School,34.0,Primary School,Riverina 1,Outer Regional Australia,-34.770061,146.927303,16.02857142857143,3.0
559,2502,Matraville Public School,195.0,Primary School,Metropolitan East,Major Cities of Australia,-33.955064,151.229111,16.02857142857143,13.0
560,2506,Mayfield East Public School,259.0,Primary School,Hunter,Major Cities of Australia,-32.89536,151.748666,16.02857142857143,17.0
561,2507,Mayfield West Public School,324.0,Primary School,Hunter,Major Cities of Australia,-32.888697,151.730116,16.02857142857143,21.0
562,2508,Mayrung Public School,29.0,Primary School,Riverina 2,Outer Regional Australia,-35.464317,145.30879,16.02857142857143,2.0
563,2509,Meadow Flat Public School,65.0,Primary School,Western 1,Inner Regional Australia,-33.433726,149.920456,16.02857142857143,4.0
564,2510,The Meadows Public School,277.0,Primary School,Metropolitan West,Major Cities of Australia,-33.781365,150.942567,16.02857142857143,18.0
565,2511,Medlow Public School,9.0,Primary School,Lower North Coast,Outer Regional Australia,-30.779087,152.69016,16.02857142857143,1.0
566,2512,Medowie Public School,359.0,Primary School,Hunter,Inner Regional Australia,-32.738245,151.85406,16.02857142857143,23.0
567,2515,Megalong Public School,3.0,Primary School,Metropolitan West,Inner Regional Australia,-33.715301,150.232582,16.02857142857143,1.0
568,2520,Menai Public School,96.0,Primary School,Metropolitan East,Major Cities of Australia,-34.01213,151.006587,16.02857142857143,6.0
569,2525,Merewether Public School,156.0,Primary School,Hunter,Major Cities of Australia,-32.937547,151.742152,16.02857142857143,10.0
570,2526,Merimbula Public School,375.0,Primary School,Lower South Coast,Outer Regional Australia,-36.886525,149.916952,16.02857142857143,24.0
571,2531,Merrylands Public School,554.0,Primary School,Metropolitan South West,Major Cities of Australia,-33.840516,150.976047,16.02857142857143,35.0
572,2532,Bonnells Bay Public School,430.0,Primary School,Hunter,Major Cities of Australia,-33.114489,151.516783,16.02857142857143,27.0
573,2540,Michelago Public School,40.0,Primary School,Upper South Coast,Inner Regional Australia,-35.705975,149.161716,16.02857142857143,3.0
574,2542,Middle Dural Public School,38.0,Primary School,Metropolitan North,Major Cities of Australia,-33.64496,151.023178,16.02857142857143,3.0
575,2543,Middle Harbour Public School,571.0,Primary School,Metropolitan North,Major Cities of Australia,-33.82282,151.2327,16.02857142857143,36.0
576,2550,Milbrodale Public School,13.0,Primary School,Hunter,Outer Regional Australia,-32.696789,151.005819,16.02857142857143,1.0
577,2554,Millers Forest Public School,58.0,Primary School,Hunter,Major Cities of Australia,-32.752067,151.703724,16.02857142857143,4.0
578,2555,Millfield Public School,86.0,Primary School,Hunter,Inner Regional Australia,-32.889837,151.250774,16.02857142857143,6.0
579,2558,Millthorpe Public School,306.0,Primary School,Western 1,Inner Regional Australia,-33.445146,149.185939,16.02857142857143,19.0
580,2560,Milperra Public School,284.0,Primary School,Metropolitan South West,Major Cities of Australia,-33.942077,150.979779,16.02857142857143,18.0
581,2565,Milton Public School,702.0,Primary School,Upper South Coast,Inner Regional Australia,-35.314149,150.435816,16.02857142857143,44.0
582,2571,Minmi Public School,123.0,Primary School,Hunter,Major Cities of Australia,-32.876125,151.617471,16.02857142857143,8.0
583,2572,Minto Public School,225.0,Primary School,Metropolitan South West,Major Cities of Australia,-34.029979,150.847266,16.02857142857143,14.0
584,2574,Miranda Public School,263.0,Primary School,Metropolitan East,Major Cities of Australia,-34.034645,151.097405,16.02857142857143,17.0
585,2580,Mitchells Island Public School,35.0,Primary School,Manning,Inner Regional Australia,-31.896762,152.614054,16.02857142857143,3.0
586,2581,Mittagong Public School,567.0,Primary School,Upper South Coast,Inner Regional Australia,-34.448044,150.44438,16.02857142857143,36.0
587,2584,Moama Public School,154.0,Primary School,Riverina 2,Inner Regional Australia,-36.115314,144.762821,16.02857142857143,10.0
588,2585,Modanville Public School,61.0,Primary School,Upper North Coast,Inner Regional Australia,-28.730204,153.297192,16.02857142857143,4.0
589,2586,Mogo Public School,40.0,Primary School,Lower South Coast,Inner Regional Australia,-35.786091,150.140569,16.02857142857143,3.0
590,2593,Mona Vale Public School,1087.0,Primary School,Metropolitan North,Major Cities of Australia,-33.676998,151.300404,16.02857142857143,68.0
591,2599,Monteagle Public School,14.0,Primary School,Western 1,Outer Regional Australia,-34.192994,148.34725,16.02857142857143,1.0
592,2608,Moonbi Public School,42.0,Primary School,North Western 2,Outer Regional Australia,-31.019752,151.073573,16.02857142857143,3.0
593,2616,Moorland Public School,21.0,Primary School,Manning,Inner Regional Australia,-31.769631,152.651174,16.02857142857143,2.0
594,2618,Moree Public School,532.0,Primary School,North Western 1,Outer Regional Australia,-29.466194,149.837564,16.02857142857143,34.0
595,2621,Morisset Public School,175.0,Primary School,Central Coast,Major Cities of Australia,-33.103543,151.489583,16.02857142857143,11.0
596,2623,Morpeth Public School,244.0,Primary School,Hunter,Major Cities of Australia,-32.725663,151.632128,16.02857142857143,16.0
597,2624,Mortdale Public School,406.0,Primary School,Metropolitan East,Major Cities of Australia,-33.972901,151.080995,16.02857142857143,26.0
598,2625,Mortlake Public School,371.0,Primary School,Metropolitan South West,Major Cities of Australia,-33.849829,151.103861,16.02857142857143,24.0
599,2628,Moruya Public School,331.0,Primary School,Lower South Coast,Inner Regional Australia,-35.912616,150.076453,16.02857142857143,21.0
600,2631,Moss Vale Public School,485.0,Primary School,Upper South Coast,Inner Regional Australia,-34.550639,150.366434,16.02857142857143,31.0
601,2632,Moulamein Public School,62.0,Primary School,Riverina 2,Outer Regional Australia,-35.08927,144.032816,16.02857142857143,4.0
602,2637,Mount George Public School,27.0,Primary School,Manning,Inner Regional Australia,-31.880982,152.179633,16.02857142857143,2.0
603,2640,Mount Hunter Public School,38.0,Primary School,Dharawal,Major Cities of Australia,-34.07177,150.63643,16.02857142857143,3.0
604,2641,Mount Kanwary Public School,21.0,Primary School,Hunter,Major Cities of Australia,-32.724187,151.699146,16.02857142857143,2.0
605,2642,Mount Keira Public School,89.0,Primary School,Upper South Coast,Major Cities of Australia,-34.411383,150.856224,16.02857142857143,6.0
606,2643,Mount Kembla Public School,112.0,Primary School,Upper South Coast,Major Cities of Australia,-34.432399,150.817114,16.02857142857143,7.0
607,2647,Mount Pleasant Public School,53.0,Primary School,Hunter,Inner Regional Australia,-32.408483,151.188781,16.02857142857143,4.0
608,2648,Mount Pritchard Public School,379.0,Primary School,Metropolitan South West,Major Cities of Australia,-33.899845,150.900007,16.02857142857143,24.0
609,2652,Mount Victoria Public School,61.0,Primary School,Metropolitan West,Inner Regional Australia,-33.591334,150.253883,16.02857142857143,4.0
610,2656,Mudgee Public School,670.0,Primary School,North Western 1,Inner Regional Australia,-32.59594,149.583964,16.02857142857143,42.0
611,2658,Mulbring Public School,62.0,Primary School,Hunter,Inner Regional Australia,-32.901304,151.478563,16.02857142857143,4.0
612,2659,Mulgoa Public School,89.0,Primary School,Metropolitan West,Major Cities of Australia,-33.836505,150.650344,16.02857142857143,6.0
613,2660,Mullaley Public School,41.0,Primary School,North Western 1,Outer Regional Australia,-31.098657,149.906668,16.02857142857143,3.0
614,2664,Mullion Creek Public School,65.0,Primary School,Western 1,Inner Regional Australia,-33.139031,149.120501,16.02857142857143,4.0
615,2665,Mullumbimby Public School,258.0,Primary School,Upper North Coast,Inner Regional Australia,-28.552011,153.505937,16.02857142857143,16.0
616,2667,Mulwala Public School,66.0,Primary School,Riverina 1,Inner Regional Australia,-35.987094,146.006624,16.02857142857143,5.0
617,2668,Clergate Public School,78.0,Primary School,Western 1,Inner Regional Australia,-33.192057,149.112293,16.02857142857143,5.0
618,2669,Mumbil Public School,7.0,Primary School,Western 1,Outer Regional Australia,-32.722371,149.052673,16.02857142857143,1.0
619,2671,Mummulgum Public School,16.0,Primary School,Upper North Coast,Inner Regional Australia,-28.848015,152.801645,16.02857142857143,1.0
620,2681,Murringo Public School,50.0,Primary School,Riverina 1,Outer Regional Australia,-34.297202,148.515471,16.02857142857143,4.0
621,2685,Murrumburrah Public School,186.0,Primary School,Riverina 1,Inner Regional Australia,-34.550826,148.359862,16.02857142857143,12.0
622,2686,Murrurundi Public School,49.0,Primary School,Hunter,Outer Regional Australia,-31.762783,150.832187,16.02857142857143,3.0
623,2687,Murwillumbah Public School,249.0,Primary School,Upper North Coast,Major Cities of Australia,-28.329886,153.391139,16.02857142857143,16.0
624,2688,Muswellbrook Public School,512.0,Primary School,Hunter,Inner Regional Australia,-32.25843,150.896369,16.02857142857143,32.0
625,2695,Nabiac Public School,204.0,Primary School,Manning,Inner Regional Australia,-32.097544,152.381902,16.02857142857143,13.0
626,2696,Nambucca Heads Public School,270.0,Primary School,Lower North Coast,Outer Regional Australia,-30.641695,153.006338,16.02857142857143,17.0
627,2698,Nana Glen Public School,135.0,Primary School,Lower North Coast,Outer Regional Australia,-30.135619,153.006206,16.02857142857143,9.0
628,2699,Nangus Public School,14.0,Primary School,Riverina 1,Inner Regional Australia,-35.053902,147.909106,16.02857142857143,1.0
629,2701,Naradhan Public School,13.0,Primary School,Riverina 1,Remote Australia,-33.615639,146.327405,16.02857142857143,1.0
630,2703,Narara Public School,379.0,Primary School,Central Coast,Major Cities of Australia,-33.387915,151.362616,16.02857142857143,24.0
631,2704,Narellan Public School,342.0,Primary School,Dharawal,Major Cities of Australia,-34.042764,150.733769,16.02857142857143,22.0
632,2706,Narrabeen Lakes Public School,413.0,Primary School,Metropolitan North,Major Cities of Australia,-33.720323,151.297413,16.02857142857143,26.0
633,2708,Narrabri Public School,353.0,Primary School,North Western 1,Outer Regional Australia,-30.324942,149.785252,16.02857142857143,22.0
634,2709,Narrabri West Public School,325.0,Primary School,North Western 1,Outer Regional Australia,-30.344469,149.763906,16.02857142857143,21.0
635,2710,Narrandera Public School,247.0,Primary School,Riverina 1,Outer Regional Australia,-34.744466,146.547854,16.02857142857143,16.0
636,2713,Narromine Public School,275.0,Primary School,Western 1,Outer Regional Australia,-32.229903,148.244421,16.02857142857143,18.0
637,2714,Nashdale Public School,131.0,Primary School,Western 1,Inner Regional Australia,-33.293794,149.013466,16.02857142857143,9.0
638,2723,Tomaree Public School,352.0,Primary School,Hunter,Inner Regional Australia,-32.737699,152.113091,16.02857142857143,22.0
639,2725,Nemingha Public School,218.0,Primary School,North Western 2,Inner Regional Australia,-31.126524,151.004156,16.02857142857143,14.0
640,2730,Neutral Bay Public School,917.0,Primary School,Metropolitan North,Major Cities of Australia,-33.83261,151.219605,16.02857142857143,58.0
641,2732,Neville Public School,18.0,Primary School,Western 1,Outer Regional Australia,-33.708658,149.216784,16.02857142857143,2.0
642,2736,Newcastle East Public School,265.0,Primary School,Hunter,Major Cities of Australia,-32.930285,151.776915,16.02857142857143,17.0
643,2738,New Lambton Public School,686.0,Primary School,Hunter,Major Cities of Australia,-32.922604,151.712784,16.02857142857143,43.0
644,2740,Newport Public School,722.0,Primary School,Metropolitan North,Major Cities of Australia,-33.660561,151.312237,16.02857142857143,45.0
645,2741,Newrybar Public School,36.0,Primary School,Upper North Coast,Inner Regional Australia,-28.717114,153.533055,16.02857142857143,3.0
646,2744,Newtown North Public School,256.0,Primary School,Metropolitan East,Major Cities of Australia,-33.891821,151.185392,16.02857142857143,16.0
647,2748,Niangala Public School,7.0,Primary School,North Western 2,Outer Regional Australia,-31.298041,151.408619,16.02857142857143,1.0
648,2749,Nicholson Street Public School,130.0,Primary School,Metropolitan East,Major Cities of Australia,-33.855744,151.193188,16.02857142857143,9.0
649,2752,Nimmitabel Public School,14.0,Primary School,Lower South Coast,Outer Regional Australia,-36.510937,149.289599,16.02857142857143,1.0
650,2758,Narooma Public School,398.0,Primary School,Lower South Coast,Outer Regional Australia,-36.218595,150.137335,16.02857142857143,25.0
651,2759,Nords Wharf Public School,168.0,Primary School,Hunter,Inner Regional Australia,-33.135817,151.605087,16.02857142857143,11.0
652,2760,Normanhurst Public School,409.0,Primary School,Metropolitan North,Major Cities of Australia,-33.723332,151.098026,16.02857142857143,26.0
653,2761,Northbridge Public School,519.0,Primary School,Metropolitan North,Major Cities of Australia,-33.813034,151.218597,16.02857142857143,33.0
654,2763,Northmead Public School,725.0,Primary School,Metropolitan West,Major Cities of Australia,-33.786511,150.990753,16.02857142857143,46.0
655,2764,North Rocks Public School,880.0,Primary School,Metropolitan North,Major Cities of Australia,-33.768425,151.025148,16.02857142857143,55.0
656,2765,North Star Public School,23.0,Primary School,North Western 1,Outer Regional Australia,-28.926653,150.392891,16.02857142857143,2.0
657,2766,North Sydney Public School,857.0,Primary School,Metropolitan North,Major Cities of Australia,-33.834819,151.203685,16.02857142857143,54.0
658,2769,Nowra Public School,581.0,Primary School,Upper South Coast,Inner Regional Australia,-34.879407,150.60052,16.02857142857143,37.0
659,2771,Nulkaba Public School,396.0,Primary School,Hunter,Inner Regional Australia,-32.810691,151.34781,16.02857142857143,25.0
660,2781,Nundle Public School,48.0,Primary School,North Western 2,Outer Regional Australia,-31.459684,151.127429,16.02857142857143,3.0
661,2784,Nymboida Public School,18.0,Primary School,Upper North Coast,Outer Regional Australia,-29.947482,152.727964,16.02857142857143,2.0
662,2785,Nyngan Public School,115.0,Primary School,Western 2,Remote Australia,-31.568398,147.195259,16.02857142857143,8.0
663,2789,Oakdale Public School,123.0,Primary School,Dharawal,Inner Regional Australia,-34.078907,150.508197,16.02857142857143,8.0
664,2793,The Oaks Public School,284.0,Primary School,Dharawal,Inner Regional Australia,-34.078385,150.571724,16.02857142857143,18.0
665,2794,Oakville Public School,447.0,Primary School,Metropolitan West,Major Cities of Australia,-33.620452,150.87054,16.02857142857143,28.0
666,2796,Oatley Public School,497.0,Primary School,Metropolitan East,Major Cities of Australia,-33.983741,151.080332,16.02857142857143,31.0
667,2797,Oberon Public School,236.0,Primary School,Western 1,Inner Regional Australia,-33.703254,149.864517,16.02857142857143,15.0
668,2798,O'Connell Public School,75.0,Primary School,Western 1,Inner Regional Australia,-33.524513,149.720076,16.02857142857143,5.0
669,2799,Old Bar Public School,524.0,Primary School,Manning,Inner Regional Australia,-31.972339,152.588536,16.02857142857143,33.0
670,2800,Old Bonalbo Public School,13.0,Primary School,Upper North Coast,Outer Regional Australia,-28.654622,152.597413,16.02857142857143,1.0
671,2801,Old Guildford Public School,425.0,Primary School,Metropolitan South West,Major Cities of Australia,-33.867484,150.986508,16.02857142857143,27.0
672,2811,Orange East Public School,269.0,Primary School,Western 1,Inner Regional Australia,-33.282069,149.113698,16.02857142857143,17.0
673,2812,Orange Grove Public School,525.0,Primary School,Metropolitan East,Major Cities of Australia,-33.872278,151.158678,16.02857142857143,33.0
674,2814,Orara Upper Public School,28.0,Primary School,Lower North Coast,Inner Regional Australia,-30.289005,153.01324,16.02857142857143,2.0
675,2815,Orchard Hills Public School,145.0,Primary School,Metropolitan West,Major Cities of Australia,-33.783029,150.721365,16.02857142857143,9.0
676,2818,Otford Public School,58.0,Primary School,Upper South Coast,Inner Regional Australia,-34.212198,151.001507,16.02857142857143,4.0
677,2820,Ourimbah Public School,407.0,Primary School,Central Coast,Major Cities of Australia,-33.354916,151.368168,16.02857142857143,26.0
678,2826,Padstow Park Public School,375.0,Primary School,Metropolitan South West,Major Cities of Australia,-33.954955,151.030882,16.02857142857143,24.0
679,2827,Pallamallawa Public School,30.0,Primary School,North Western 1,Outer Regional Australia,-29.473894,150.141464,16.02857142857143,2.0
680,2829,Palmers Island Public School,38.0,Primary School,Upper North Coast,Inner Regional Australia,-29.419567,153.28822,16.02857142857143,3.0
681,2831,Pambula Public School,343.0,Primary School,Lower South Coast,Outer Regional Australia,-36.925482,149.871813,16.02857142857143,22.0
682,2835,Parkes Public School,384.0,Primary School,Western 1,Outer Regional Australia,-33.13229,148.176314,16.02857142857143,24.0
683,2838,Parklea Public School,696.0,Primary School,Metropolitan West,Major Cities of Australia,-33.725885,150.93476,16.02857142857143,44.0
684,2840,Parramatta Public School,1008.0,Primary School,Metropolitan West,Major Cities of Australia,-33.81571,151.007732,16.02857142857143,63.0
685,2841,Wooli Public School,38.0,Primary School,Upper North Coast,Outer Regional Australia,-29.870923,153.265781,16.02857142857143,3.0
686,2842,Parramatta North Public School,402.0,Primary School,Metropolitan West,Major Cities of Australia,-33.803951,151.004694,16.02857142857143,25.0
687,2843,Parramatta West Public School,885.0,Primary School,Metropolitan West,Major Cities of Australia,-33.824472,150.990968,16.02857142857143,56.0
688,2844,Paterson Public School,112.0,Primary School,Hunter,Inner Regional Australia,-32.602294,151.612319,16.02857142857143,7.0
689,2846,Paxton Public School,64.0,Primary School,Hunter,Inner Regional Australia,-32.900993,151.284621,16.02857142857143,4.0
690,2849,Peakhurst Public School,619.0,Primary School,Metropolitan East,Major Cities of Australia,-33.955402,151.062306,16.02857142857143,39.0
691,2852,Peats Ridge Public School,16.0,Primary School,Central Coast,Inner Regional Australia,-33.325841,151.23275,16.02857142857143,1.0
692,2855,Pelaw Main Public School,193.0,Primary School,Hunter,Major Cities of Australia,-32.831923,151.484743,16.02857142857143,12.0
693,2857,Pennant Hills Public School,574.0,Primary School,Metropolitan North,Major Cities of Australia,-33.7358,151.068058,16.02857142857143,36.0
694,2858,West Pennant Hills Public School,620.0,Primary School,Metropolitan North,Major Cities of Australia,-33.746075,151.050491,16.02857142857143,39.0
695,2859,Penrith Public School,452.0,Primary School,Metropolitan West,Major Cities of Australia,-33.755926,150.70439,16.02857142857143,29.0
696,2860,Penrose Public School,14.0,Primary School,Upper South Coast,Inner Regional Australia,-34.669731,150.221344,16.02857142857143,1.0
697,2861,Penshurst Public School,374.0,Primary School,Metropolitan East,Major Cities of Australia,-33.962636,151.087702,16.02857142857143,24.0
698,2862,Perthville Public School,131.0,Primary School,Western 1,Inner Regional Australia,-33.491052,149.550052,16.02857142857143,9.0
699,2867,Picton Public School,329.0,Primary School,Dharawal,Inner Regional Australia,-34.17624,150.609346,16.02857142857143,21.0
700,2870,Pilliga Public School,22.0,Primary School,North Western 1,Remote Australia,-30.352248,148.889152,16.02857142857143,2.0
701,2884,Pitt Town Public School,294.0,Primary School,Metropolitan West,Major Cities of Australia,-33.583887,150.859638,16.02857142857143,19.0
702,2886,Pleasant Hills Public School,17.0,Primary School,Riverina 1,Outer Regional Australia,-35.46651,146.798512,16.02857142857143,1.0
703,2887,Plumpton Public School,516.0,Primary School,Metropolitan West,Major Cities of Australia,-33.749158,150.838556,16.02857142857143,33.0
704,2890,The Pocket Public School,92.0,Primary School,Upper North Coast,Inner Regional Australia,-28.505414,153.479112,16.02857142857143,6.0
705,2893,Pomona Public School,22.0,Primary School,Riverina 3,Remote Australia,-34.025726,141.89493,16.02857142857143,2.0
706,2895,Pooncarie Public School,5.0,Primary School,Riverina 3,Remote Australia,-33.383033,142.568324,16.02857142857143,1.0
707,2896,Port Kembla Public School,276.0,Primary School,Upper South Coast,Major Cities of Australia,-34.48609,150.914724,16.02857142857143,18.0
708,2899,Port Macquarie Public School,434.0,Primary School,Lower North Coast,Inner Regional Australia,-31.429869,152.913872,16.02857142857143,27.0
709,2901,Prestons Public School,704.0,Primary School,Metropolitan South West,Major Cities of Australia,-33.94642,150.889961,16.02857142857143,44.0
710,2902,Pretty Beach Public School,183.0,Primary School,Central Coast,Major Cities of Australia,-33.528039,151.350019,16.02857142857143,12.0
711,2904,Primbee Public School,138.0,Primary School,Upper South Coast,Major Cities of Australia,-34.501421,150.882302,16.02857142857143,9.0
712,2910,Punchbowl Public School,570.0,Primary School,Metropolitan South West,Major Cities of Australia,-33.930613,151.055905,16.02857142857143,36.0
713,2913,Putney Public School,493.0,Primary School,Metropolitan North,Major Cities of Australia,-33.824562,151.110973,16.02857142857143,31.0
714,2917,Quaama Public School,54.0,Primary School,Lower South Coast,Outer Regional Australia,-36.464226,149.86705,16.02857142857143,4.0
715,2918,Quakers Hill Public School,1099.0,Primary School,Metropolitan West,Major Cities of Australia,-33.737467,150.885265,16.02857142857143,69.0
716,2919,Quambone Public School,12.0,Primary School,Western 2,Remote Australia,-30.930706,147.872001,16.02857142857143,1.0
717,2920,Quandialla Public School,22.0,Primary School,Western 1,Outer Regional Australia,-34.010362,147.790454,16.02857142857143,2.0
718,2922,Queanbeyan Public School,658.0,Primary School,Upper South Coast,Major Cities of Australia,-35.357526,149.236154,16.02857142857143,41.0
719,2926,Leppington Public School,333.0,Primary School,Metropolitan South West,Major Cities of Australia,-33.959269,150.810901,16.02857142857143,21.0
720,2927,Raglan Public School,246.0,Primary School,Western 1,Inner Regional Australia,-33.428034,149.648098,16.02857142857143,16.0
721,2930,Rainbow Street Public School,413.0,Primary School,Metropolitan East,Major Cities of Australia,-33.924647,151.237164,16.02857142857143,26.0
722,2931,Raleigh Public School,25.0,Primary School,Lower North Coast,Outer Regional Australia,-30.450064,153.012586,16.02857142857143,2.0
723,2933,Rand Public School,27.0,Primary School,Riverina 1,Outer Regional Australia,-35.596087,146.580442,16.02857142857143,2.0
